state,polling_place,premises,address,suburb,postcode,wheelchair_access,match_source,match_type,latitude,longitude,geometry,pp_2016_index
ACT,Bonython,Bonython Primary School,Hurtle Ave,BONYTHON,2905.0,F,2007 Polling Places,"Match 01 - state, premises, postcode",-35.4318,149.083,POINT (149.083 -35.4318),3
ACT,Calwell,Calwell High School,Casey Cres,CALWELL,2905.0,F,2007 Polling Places,"Match 01 - state, premises, postcode",-35.4406,149.116,POINT (149.116 -35.4406),5
ACT,Canberra Hospital,The Canberra Hospital,Blding 2 Level 3 Yamba Dr,GARRAN,2605.0,F,2007 Polling Places,"Match 01 - state, premises, postcode",-35.3453,149.1,POINT (149.1 -35.3453),19
ACT,Chapman,Chapman Primary School,Perry Dr,CHAPMAN,2611.0,F,2007 Polling Places,"Match 01 - state, premises, postcode",-35.3569,149.043,POINT (149.043 -35.3569),7
ACT,Chifley,Melrose Primary School,Maclaurin Cres,CHIFLEY,2606.0,A,google geocode,GEOMETRIC_CENTER,-35.350297999999995,149.08104319999998,POINT (149.0810432 -35.350298),31
ACT,Chisholm,Chisholm Primary School,Hambidge Cres,CHISHOLM,2905.0,A,2007 Polling Places,"Match 01 - state, premises, postcode",-35.4191,149.123,POINT (149.123 -35.4191),8
ACT,Conder,Charles Conder Primary School,Tom Roberts Ave,CONDER,2906.0,F,2007 Polling Places,"Match 01 - state, premises, postcode",-35.4649,149.09799999999996,POINT (149.098 -35.4649),11
ACT,Curtin,Curtin Primary School,Theodore St,CURTIN,2605.0,A,2007 Polling Places,"Match 01 - state, premises, postcode",-35.3317,149.08,POINT (149.08 -35.3317),13
ACT,Deakin,CCEGGS Senior School,Melbourne Ave,DEAKIN,2600.0,N,2007 Polling Places,"Match 05 - state, polling_place, postcode",-35.3122,149.111,POINT (149.111 -35.3122),14
ACT,Duffy,Duffy Primary School,Burrinjuck Cres,DUFFY,2611.0,F,2007 Polling Places,"Match 01 - state, premises, postcode",-35.3342,149.034,POINT (149.034 -35.3342),16
ACT,Fadden,Fadden Primary School,Hanlon Cres,FADDEN,2904.0,F,2007 Polling Places,"Match 01 - state, premises, postcode",-35.4043,149.118,POINT (149.118 -35.4043),17
ACT,Farrer,Farrer Primary School,Lambrigg St,FARRER,2607.0,A,2007 Polling Places,"Match 01 - state, premises, postcode",-35.3787,149.107,POINT (149.107 -35.3787),18
ACT,Gilmore,Gilmore Primary School,Heagney Cres,GILMORE,2905.0,F,2007 Polling Places,"Match 01 - state, premises, postcode",-35.4195,149.136,POINT (149.136 -35.4195),20
ACT,Gordon,Gordon Primary School,Knoke St,GORDON,2906.0,F,2007 Polling Places,"Match 01 - state, premises, postcode",-35.4555,149.08700000000005,POINT (149.087 -35.4555),21
ACT,Gowrie,Gowrie Primary School,Jeffries St,GOWRIE,2904.0,F,2007 Polling Places,"Match 01 - state, premises, postcode",-35.4136,149.111,POINT (149.111 -35.4136),22
ACT,Holder,St. Judes Primary School,Mulley St,HOLDER,2611.0,A,2007 Polling Places,"Match 05 - state, polling_place, postcode",-35.3338,149.05,POINT (149.05 -35.3338),25
ACT,Hughes,Hughes Primary School,Kent St,HUGHES,2605.0,F,2007 Polling Places,"Match 01 - state, premises, postcode",-35.3322,149.092,POINT (149.092 -35.3322),26
ACT,Isabella Plains,Isabella Plains Primary School,Ellerston Ave,ISABELLA PLAINS,2905.0,F,2007 Polling Places,"Match 01 - state, premises, postcode",-35.4287,149.089,POINT (149.089 -35.4287),27
ACT,Kambah East,Village Creek Primary School,Kingsmill St,KAMBAH,2902.0,F,2007 Polling Places,"Match 01 - state, premises, postcode",-35.3851,149.072,POINT (149.072 -35.3851),29
ACT,Kambah North,Taylor Primary School,Marconi Cres,KAMBAH,2902.0,F,2007 Polling Places,"Match 01 - state, premises, postcode",-35.3783,149.064,POINT (149.064 -35.3783),28
ACT,Kambah South,Urambi Primary School,O'Halloran Crct,KAMBAH,2902.0,F,2007 Polling Places,"Match 01 - state, premises, postcode",-35.3945,149.063,POINT (149.063 -35.3945),29
ACT,Kambah West,Mount Neighbour Primary School,Boddington Cres,KAMBAH,2902.0,F,2007 Polling Places,"Match 05 - state, polling_place, postcode",-35.3806,149.053,POINT (149.053 -35.3806),30
ACT,Lyons,Lyons Primary School,Tarraleah Cres,LYONS,2606.0,F,2007 Polling Places,"Match 01 - state, premises, postcode",-35.3421,149.076,POINT (149.076 -35.3421),31
ACT,Mawson,Mawson Primary School,Ainsworth St,MAWSON,2607.0,A,2007 Polling Places,"Match 01 - state, premises, postcode",-35.3585,149.09799999999996,POINT (149.098 -35.3585),32
ACT,Monash,Monash Primary School,Corlette Cres,MONASH,2904.0,A,2007 Polling Places,"Match 01 - state, premises, postcode",-35.4149,149.089,POINT (149.089 -35.4149),33
ACT,Oaks Estate,Oaks Estate Community Hall,William St,OAKS ESTATE,2620.0,F,2007 Polling Places,"Match 01 - state, premises, postcode",-35.3424,149.231,POINT (149.231 -35.3424),37
ACT,Pearce,Melrose High School,Marr St,PEARCE,2607.0,A,2007 Polling Places,"Match 01 - state, premises, postcode",-35.3636,149.089,POINT (149.089 -35.3636),41
ACT,Red Hill,Red Hill Primary School,Astrolabe St,RED HILL,2603.0,A,2007 Polling Places,"Match 01 - state, premises, postcode",-35.3393,149.13299999999995,POINT (149.133 -35.3393),42
ACT,Richardson,Richardson Primary School,May Gibbs Cl,RICHARDSON,2905.0,F,2010 Polling Places,"Match 02 - state, premises, postcode",-35.4287,149.114,POINT (149.114 -35.4287),43
ACT,Rivett,Rivett Primary School,Bangalay Cres,RIVETT,2611.0,F,google geocode,GEOMETRIC_CENTER,-35.3455516,149.0380704,POINT (149.0380704 -35.3455516),7
ACT,Theodore,Theodore Primary School,Lawrence Wackett Cres,THEODORE,2905.0,F,2007 Polling Places,"Match 01 - state, premises, postcode",-35.4477,149.124,POINT (149.124 -35.4477),49
ACT,Wanniassa,Wanniassa Primary School,Sternberg Cres,WANNIASSA,2903.0,A,2007 Polling Places,"Match 05 - state, polling_place, postcode",-35.3947,149.086,POINT (149.086 -35.3947),52
ACT,Wanniassa Hills,Wanniassa Hills Primary School,Langdon Ave,WANNIASSA,2903.0,A,2007 Polling Places,"Match 01 - state, premises, postcode",-35.392,149.095,POINT (149.095 -35.392),53
ACT,Waramanga,Arawang Primary School,Nemarang Cres,WARAMANGA,2611.0,F,2007 Polling Places,"Match 01 - state, premises, postcode",-35.355,149.06,POINT (149.06 -35.355),54
ACT,Weston,Weston Primary School,Hilder St,WESTON,2611.0,F,2007 Polling Places,"Match 05 - state, polling_place, postcode",-35.3412,149.053,POINT (149.053 -35.3412),55
ACT,Yarralumla,Yarralumla Primary School,Loftus St,YARRALUMLA,2600.0,F,2007 Polling Places,"Match 01 - state, premises, postcode",-35.3069,149.10299999999995,POINT (149.103 -35.3069),57
ACT,Ainslie,Ainslie Primary School,Elder St,BRADDON,2601.0,N,2007 Polling Places,"Match 01 - state, premises, postcode",-35.2664,149.143,POINT (149.143 -35.2664),4
ACT,Ainslie North,North Ainslie Primary School,Sherbrooke St,AINSLIE,2602.0,A,2007 Polling Places,"Match 01 - state, premises, postcode",-35.2543,149.14700000000005,POINT (149.147 -35.2543),58
ACT,Aranda,Aranda Primary School,Banambila St,ARANDA,2614.0,N,2007 Polling Places,"Match 01 - state, premises, postcode",-35.256,149.08,POINT (149.08 -35.256),60
ACT,Baker Gardens,Ainslie Pre School,Baker Gardens,AINSLIE,2602.0,N,2007 Polling Places,"Match 05 - state, polling_place, postcode",-35.2664,149.143,POINT (149.143 -35.2664),4
ACT,Barton,Telopea Park School,New South Wales Cres,BARTON,2600.0,F,2007 Polling Places,"Match 01 - state, premises, postcode",-35.3151,149.135,POINT (149.135 -35.3151),0
ACT,Belconnen,Lake Ginninderra College,Emu Bank,BELCONNEN,2617.0,N,2007 Polling Places,"Match 01 - state, premises, postcode",-35.2391,149.07399999999996,POINT (149.074 -35.2391),61
ACT,Bruce,Calvary Hospital,Haydon Dr,BRUCE,2617.0,F,2007 Polling Places,"Match 01 - state, premises, postcode",-35.253,149.088,POINT (149.088 -35.253),60
ACT,Campbell,Campbell Primary School,Chauvel St,CAMPBELL,2601.0,N,2007 Polling Places,"Match 01 - state, premises, postcode",-35.2903,149.156,POINT (149.156 -35.2903),6
ACT,Charnwood,St Thomas Aquinas Primary School,Lhotsky St,CHARNWOOD,2615.0,F,2007 Polling Places,"Match 01 - state, premises, postcode",-35.2051,149.03,POINT (149.03 -35.2051),66
ACT,City,Pilgrim House,69 Northbourne Ave,CANBERRA CITY,2601.0,F,2007 Polling Places,"Match 01 - state, premises, postcode",-35.2766,149.129,POINT (149.129 -35.2766),9
ACT,Dickson,Daramalan College,Cowper St,DICKSON,2602.0,A,2007 Polling Places,"Match 01 - state, premises, postcode",-35.2535,149.139,POINT (149.139 -35.2535),69
ACT,Downer,Downer Community Centre,Frencham Pl,DOWNER,2602.0,A,2007 Polling Places,"Match 01 - state, premises, postcode",-35.2445,149.145,POINT (149.145 -35.2445),71
ACT,Evatt,Evatt Primary School,Heydon Cres,EVATT,2617.0,F,2007 Polling Places,"Match 01 - state, premises, postcode",-35.2071,149.076,POINT (149.076 -35.2071),72
ACT,Evatt South,Miles Franklin Primary School,Alderman St,EVATT,2617.0,F,2007 Polling Places,"Match 01 - state, premises, postcode",-35.2133,149.067,POINT (149.067 -35.2133),72
ACT,Florey,St Francis Xavier High School,Barnard Crct,FLOREY,2615.0,A,2007 Polling Places,"Match 05 - state, polling_place, postcode",-35.22400000000001,149.041,POINT (149.041 -35.22400000000001),73
ACT,Flynn,Flynn Primary School,Bingle St,FLYNN,2615.0,N,google geocode,GEOMETRIC_CENTER,-35.20546829999999,149.0450949,POINT (149.0450949 -35.20546829999999),87
ACT,Giralang,Giralang Primary School,Canopus Cres,GIRALANG,2617.0,F,2007 Polling Places,"Match 01 - state, premises, postcode",-35.2137,149.094,POINT (149.094 -35.2137),76
ACT,Griffith,O'Connell Centre,Stuart St,GRIFFITH,2603.0,F,2007 Polling Places,"Match 05 - state, polling_place, postcode",-35.3222,149.145,POINT (149.145 -35.3222),23
ACT,Hall,Hall Primary School,Hoskins St,HALL,2618.0,N,2007 Polling Places,"Match 05 - state, polling_place, postcode",-35.1704,149.072,POINT (149.072 -35.1704),89
ACT,Higgins,Higgins Primary School,Fullagar Cres,HIGGINS,2615.0,F,2007 Polling Places,"Match 01 - state, premises, postcode",-35.2328,149.024,POINT (149.024 -35.2328),80
ACT,Holt,Holt Primary School,Beaurepaire Cres,HOLT,2615.0,N,2007 Polling Places,"Match 01 - state, premises, postcode",-35.2227,149.012,POINT (149.012 -35.2227),85
ACT,Jervis Bay,Jervis Bay Primary School,Dykes Ave,JERVIS BAY,2540.0,N,2007 Polling Places,"Match 01 - state, premises, postcode",-35.1294,150.705,POINT (150.705 -35.1294),987
ACT,Kaleen,Kaleen Primary School,Ashburton St,KALEEN,2617.0,F,2007 Polling Places,"Match 01 - state, premises, postcode",-35.2248,149.114,POINT (149.114 -35.2248),81
ACT,Kaleen South,Maribyrnong Primary School,Alberga St,KALEEN,2617.0,F,2007 Polling Places,"Match 01 - state, premises, postcode",-35.2351,149.102,POINT (149.102 -35.2351),82
ACT,Latham,Latham Primary School,O'Loghlen St,LATHAM,2615.0,N,2007 Polling Places,"Match 01 - state, premises, postcode",-35.2202,149.034,POINT (149.034 -35.2202),83
ACT,Lyneham,Lyneham Primary School,Hall St,LYNEHAM,2602.0,N,2007 Polling Places,"Match 01 - state, premises, postcode",-35.2515,149.125,POINT (149.125 -35.2515),84
ACT,Macgregor,Macgregor Primary School,Hirschfeld Cres,MACGREGOR,2615.0,N,2007 Polling Places,"Match 01 - state, premises, postcode",-35.2131,149.012,POINT (149.012 -35.2131),85
ACT,Macquarie,Macquarie Primary School,Bennelong Cres,MACQUARIE,2614.0,N,2007 Polling Places,"Match 01 - state, premises, postcode",-35.2501,149.059,POINT (149.059 -35.2501),86
ACT,Melba,Mt Rogers Community School,Alfred Hill Dr,MELBA,2615.0,F,2007 Polling Places,"Match 01 - state, premises, postcode",-35.2083,149.056,POINT (149.056 -35.2083),87
ACT,Narrabundah,Narrabundah Primary School,Kootara Cres,NARRABUNDAH,2604.0,N,2007 Polling Places,"Match 01 - state, premises, postcode",-35.329,149.151,POINT (149.151 -35.329),34
ACT,Ngunnawal,Ngunnawal Primary School,Unaipon Ave,NGUNNAWAL,2913.0,F,2007 Polling Places,"Match 01 - state, premises, postcode",-35.1692,149.112,POINT (149.112 -35.1692),88
ACT,Nicholls,Nicholls Primary School,Kelleway Ave,NICHOLLS,2913.0,N,2007 Polling Places,"Match 05 - state, polling_place, postcode",-35.1802,149.102,POINT (149.102 -35.1802),89
ACT,Page,St Matthew's School,Stutchbury St,PAGE,2614.0,F,2007 Polling Places,"Match 01 - state, premises, postcode",-35.2398,149.042,POINT (149.042 -35.2398),91
ACT,Palmerston,Palmerston Primary School,Kosciusko Ave,PALMERSTON,2913.0,F,2007 Polling Places,"Match 01 - state, premises, postcode",-35.1975,149.12,POINT (149.12 -35.1975),92
ACT,Reid,Uniting Church Hall,54 Coranderrk St,REID,2612.0,N,google geocode,RANGE_INTERPOLATED,-35.2801071,149.1401034,POINT (149.1401034 -35.2801071),4
ACT,Scullin,Southern Cross Primary School,Ross Smith Cres,SCULLIN,2614.0,N,2007 Polling Places,"Match 01 - state, premises, postcode",-35.2328,149.03799999999995,POINT (149.038 -35.2328),94
ACT,Spence,Former Spence Primary School,Crofts Cres,SPENCE,2615.0,N,google geocode,GEOMETRIC_CENTER,-35.1987171,149.062818,POINT (149.062818 -35.1987171),87
ACT,Turner,Turner Primary School,Condamine St,TURNER,2601.0,F,2007 Polling Places,"Match 01 - state, premises, postcode",-35.265,149.126,POINT (149.126 -35.265),51
ACT,Watson,Majura Primary School,Irvine St,WATSON,2602.0,F,2007 Polling Places,"Match 01 - state, premises, postcode",-35.2385,149.155,POINT (149.155 -35.2385),100
ACT,Weetangera,Weetangera Primary School,Southwell St,WEETANGERA,2614.0,N,2007 Polling Places,"Match 01 - state, premises, postcode",-35.2518,149.047,POINT (149.047 -35.2518),101
ACT,Wreck Bay,Community Office,Wreck Bay Rd,WRECK BAY,2540.0,N,2007 Polling Places,"Match 01 - state, premises, postcode",-35.159,150.697,POINT (150.697 -35.159),987
NSW,Beverly Hills North,Beverly Hills North Public School,Shorter Ave,BEVERLY HILLS,2209.0,N,2007 Polling Places,"Match 01 - state, premises, postcode",-33.9413,151.075,POINT (151.075 -33.9413),105
NSW,East Hills,1st East Hills Scout Hall,Cnr Henry Lawson Dr & Maclaurin Ave,EAST HILLS,2213.0,N,2007 Polling Places,"Match 01 - state, premises, postcode",-33.9637,150.987,POINT (150.987 -33.9637),113
NSW,Hannans Road,Hannans Road Public School,Hannans Rd,RIVERWOOD,2210.0,A,2007 Polling Places,"Match 01 - state, premises, postcode",-33.9459,151.058,POINT (151.058 -33.9459),143
NSW,Lugarno,Lugarno Public School,Old Forest Rd,LUGARNO,2210.0,A,2007 Polling Places,"Match 01 - state, premises, postcode",-33.9857,151.04399999999995,POINT (151.044 -33.9857),119
NSW,Milperra,Milperra Public School,Pozieres Ave,MILPERRA,2214.0,A,2007 Polling Places,"Match 01 - state, premises, postcode",-33.9418,150.98,POINT (150.98 -33.9418),323
NSW,Mortdale Central,Mortdale Pensioners Welfare Club,76 Pitt St,MORTDALE,2223.0,A,2007 Polling Places,"Match 01 - state, premises, postcode",-33.9727,151.077,POINT (151.077 -33.9727),120
NSW,Mortdale Heights,Girl Guides Hall,Beatty St,MORTDALE,2223.0,N,2007 Polling Places,"Match 05 - state, polling_place, postcode",-33.9705,151.067,POINT (151.067 -33.9705),125
NSW,Mortdale West,Penshurst West Public School,Forest Rd,MORTDALE,2223.0,N,2007 Polling Places,"Match 01 - state, premises, postcode",-33.9619,151.07299999999995,POINT (151.073 -33.9619),122
NSW,Narwee,Narwee High School,Chamberlain St,NARWEE,2209.0,N,2007 Polling Places,"Match 05 - state, polling_place, postcode",-33.9482,151.069,POINT (151.069 -33.9482),123
NSW,Oatley,Oatley Public School,Neville St,OATLEY,2223.0,N,2007 Polling Places,"Match 01 - state, premises, postcode",-33.9847,151.08100000000005,POINT (151.081 -33.9847),124
NSW,Oatley West,Oatley West Public School,Oatley Park Ave,OATLEY,2223.0,A,2007 Polling Places,"Match 01 - state, premises, postcode",-33.9796,151.065,POINT (151.065 -33.9796),125
NSW,Padstow,Padstow Park Public School,Segers Ave,PADSTOW,2211.0,N,2007 Polling Places,"Match 01 - state, premises, postcode",-33.9542,151.031,POINT (151.031 -33.9542),126
NSW,Padstow East,1st Padstow Scouts Hall,107 Arab Rd,PADSTOW,2211.0,N,2007 Polling Places,"Match 05 - state, polling_place, postcode",-33.949,151.03,POINT (151.03 -33.949),127
NSW,Padstow North,Padstow TAFE,Raine Rd,PADSTOW,2211.0,A,2007 Polling Places,"Match 01 - state, premises, postcode",-33.9485,151.026,POINT (151.026 -33.9485),127
NSW,Padstow South,Padstow Heights Public School,Chamberlain Rd,PADSTOW HEIGHTS,2211.0,N,2007 Polling Places,"Match 01 - state, premises, postcode",-33.9672,151.03,POINT (151.03 -33.9672),129
NSW,Panania,Revesby Presbyterian Church,Corner Tower St & Eastern Ave,REVESBY,2212.0,A,google geocode,GEOMETRIC_CENTER,-33.9578721,151.011624,POINT (151.011624 -33.9578721),142
NSW,Panania Central,2nd Panania Scouts Hall,Wilson St,PANANIA,2213.0,N,2007 Polling Places,"Match 01 - state, premises, postcode",-33.9519,150.998,POINT (150.998 -33.9519),131
NSW,Panania North,Panania North Public School,Bransgrove Rd,PANANIA,2213.0,N,2007 Polling Places,"Match 01 - state, premises, postcode",-33.9451,150.999,POINT (150.999 -33.9451),132
NSW,Panania South,Panania Public School,Lawler St,PANANIA,2213.0,N,2007 Polling Places,"Match 01 - state, premises, postcode",-33.9661,151.0,POINT (151 -33.9661),133
NSW,Peakhurst,Peakhurst Scouts Hall,Cnr Pearce Ave & Peake Pde,PEAKHURST,2210.0,N,google geocode,GEOMETRIC_CENTER,-33.9594649,151.06021850000002,POINT (151.0602185 -33.9594649),134
NSW,Peakhurst East,Peakhurst Public School,Bonds Rd,PEAKHURST,2210.0,N,2007 Polling Places,"Match 01 - state, premises, postcode",-33.9553,151.061,POINT (151.061 -33.9553),134
NSW,Peakhurst South,Peakhurst South Public School,Pindari Rd,PEAKHURST,2210.0,N,2007 Polling Places,"Match 01 - state, premises, postcode",-33.9714,151.055,POINT (151.055 -33.9714),135
NSW,Peakhurst West,Peakhurst West Public School,Ogilvy St,PEAKHURST,2210.0,N,2007 Polling Places,"Match 01 - state, premises, postcode",-33.9613,151.05,POINT (151.05 -33.9613),136
NSW,Penshurst Central,Penshurst Girls High School,2 Austral St,PENSHURST,2222.0,N,2007 Polling Places,"Match 01 - state, premises, postcode",-33.9641,151.08700000000005,POINT (151.087 -33.9641),138
NSW,Picnic Point North,Picnic Point High School,Kennedy St,PICNIC POINT,2213.0,N,2007 Polling Places,"Match 01 - state, premises, postcode",-33.9649,151.01,POINT (151.01 -33.9649),139
NSW,Punchbowl,Punchbowl Public School,1333 Canterbury Rd,PUNCHBOWL,2196.0,N,2010 Polling Places,"Match 02 - state, premises, postcode",-33.9307,151.056,POINT (151.056 -33.9307),2693
NSW,Revesby,Y.M.C.A. Centre,184 The River Rd,REVESBY,2212.0,A,2007 Polling Places,"Match 01 - state, premises, postcode",-33.954,151.017,POINT (151.017 -33.954),140
NSW,Revesby North,Revesby Public School,Victoria St,REVESBY,2212.0,A,2007 Polling Places,"Match 01 - state, premises, postcode",-33.9447,151.017,POINT (151.017 -33.9447),141
NSW,Revesby South,Revesby South Public School,Mars St,REVESBY,2212.0,A,2007 Polling Places,"Match 01 - state, premises, postcode",-33.9605,151.017,POINT (151.017 -33.9605),142
NSW,Riverwood North,Riverwood Public School,Union St,RIVERWOOD,2210.0,N,2007 Polling Places,"Match 01 - state, premises, postcode",-33.9463,151.048,POINT (151.048 -33.9463),144
NSW,Riverwood South,St Andrews Church Hall,9 Littleton St,RIVERWOOD,2210.0,N,2007 Polling Places,"Match 01 - state, premises, postcode",-33.9524,151.053,POINT (151.053 -33.9524),145
NSW,Sydney,Sydney Town Hall,George St,SYDNEY,2000.0,F,2007 Polling Places,"Match 01 - state, premises, postcode",-33.8735,151.207,POINT (151.207 -33.8735),147
NSW,Allawah,St George Christian School,65 Woids Ave,ALLAWAH,2218.0,N,2007 Polling Places,"Match 05 - state, polling_place, postcode",-33.9713,151.111,POINT (151.111 -33.9713),104
NSW,Allawah South,St Raphaels Church Hall,84 George St,SOUTH HURSTVILLE,2221.0,N,2007 Polling Places,"Match 05 - state, polling_place, postcode",-33.9756,151.111,POINT (151.111 -33.9756),104
NSW,Arncliffe,St Andrews Presbyterian Church Hall,269 Forest Rd,BEXLEY,2207.0,N,google geocode,GEOMETRIC_CENTER,-33.9527868,151.12192209999998,POINT (151.1219221 -33.9527868),156
NSW,Arncliffe East,St Francis Xavier's School,Cnr Forest Rd and Wardell St,ARNCLIFFE,2205.0,N,google geocode,GEOMETRIC_CENTER,-33.9391513,151.14627109999998,POINT (151.1462711 -33.9391513),149
NSW,Athelstane,Athelstane Public School,Athelstane Ave,ARNCLIFFE,2205.0,A,2007 Polling Places,"Match 01 - state, premises, postcode",-33.9374,151.138,POINT (151.138 -33.9374),150
NSW,Bald Face,Bald Face Public School,84 Stuart St,BLAKEHURST,2221.0,A,2007 Polling Places,"Match 01 - state, premises, postcode",-33.9973,151.107,POINT (151.107 -33.9973),519
NSW,Banksia,Baptist Church Hall,316 Princes Hwy,BANKSIA,2216.0,N,google geocode,ROOFTOP,-33.9459179,151.1415622,POINT (151.1415622 -33.9459179),184
NSW,Bell Park,Hurstville South Public School,Maher St,HURSTVILLE,2220.0,A,2007 Polling Places,"Match 01 - state, premises, postcode",-33.9726,151.099,POINT (151.099 -33.9726),118
NSW,Bexley,Anglican Church Hall,Albyn St,BEXLEY,2207.0,N,2007 Polling Places,"Match 05 - state, polling_place, postcode",-33.9515,151.125,POINT (151.125 -33.9515),156
NSW,Bexley Central,St Gabriels School,39 Highgate St,BEXLEY,2207.0,N,2007 Polling Places,"Match 05 - state, polling_place, postcode",-33.9479,151.122,POINT (151.122 -33.9479),156
NSW,Bexley East,Bexley Public School,348 Forest Rd,BEXLEY,2207.0,A,2007 Polling Places,"Match 01 - state, premises, postcode",-33.9467,151.128,POINT (151.128 -33.9467),157
NSW,Blakehurst,Blakehurst Uniting Church Hall,973 King Georges Rd,BLAKEHURST,2221.0,N,2007 Polling Places,"Match 05 - state, polling_place, postcode",-33.9878,151.111,POINT (151.111 -33.9878),528
NSW,Bona Park,Sans Souci Guide Hall,Robert St,SANS SOUCI,2219.0,N,google geocode,GEOMETRIC_CENTER,-33.98938500000001,151.1357734,POINT (151.1357734 -33.98938500000001),551
NSW,Brighton-Le-Sands,Brighton-Le-Sands Public School,35 Crawford Rd,BRIGHTON-LE-SANDS,2216.0,N,2007 Polling Places,"Match 01 - state, premises, postcode",-33.9627,151.148,POINT (151.148 -33.9627),161
NSW,Brighton North,St Marks Anglican Church Hall,1 Trafalgar St,BRIGHTON-LE-SANDS,2216.0,N,2007 Polling Places,"Match 05 - state, polling_place, postcode",-33.9605,151.154,POINT (151.154 -33.9605),161
NSW,Carlton,Carlton Scout Hall,Milsop St,BEXLEY,2207.0,A,2007 Polling Places,"Match 05 - state, polling_place, postcode",-33.9624,151.124,POINT (151.124 -33.9624),163
NSW,Carlton North,Senior Citizens Centre,Taylor St,KOGARAH,2217.0,A,google geocode,GEOMETRIC_CENTER,-33.9640084,151.1308856,POINT (151.1308856 -33.9640084),177
NSW,Carss Park,Blakehurst Public School,Dewrang St,CARSS PARK,2221.0,N,2007 Polling Places,"Match 01 - state, premises, postcode",-33.9834,151.116,POINT (151.116 -33.9834),528
NSW,Clareville Park,Pre-School Kindergarten,95 Clareville Ave,SANDRINGHAM,2219.0,A,google geocode,ROOFTOP,-33.99926370000001,151.1387328,POINT (151.1387328 -33.99926370000001),554
NSW,Connells Point,Connells Point Public School,Riverview Ave,CONNELLS POINT,2221.0,N,2007 Polling Places,"Match 01 - state, premises, postcode",-33.9855,151.1,POINT (151.1 -33.9855),111
NSW,Hurstville Central,Woniora Road School,83 Woniora Rd,HURSTVILLE,2220.0,N,google geocode,ROOFTOP,-33.9710063,151.1031575,POINT (151.1031575 -33.9710063),118
NSW,Hurstville Grove,St Aidans Church Hall,Cnr Hillcrest Ave and Lansdowne St,HURSTVILLE GROVE,2220.0,N,2007 Polling Places,"Match 05 - state, polling_place, postcode",-33.9743,151.092,POINT (151.092 -33.9743),117
NSW,Hurstville South,Blakehurst High School,270a Woniora Rd,BLAKEHURST,2221.0,N,2007 Polling Places,"Match 01 - state, premises, postcode",-33.9814,151.113,POINT (151.113 -33.9814),107
NSW,Jubilee,Carlton South Public School,Jubilee Ave,CARLTON,2218.0,N,2007 Polling Places,"Match 01 - state, premises, postcode",-33.9727,151.128,POINT (151.128 -33.9727),109
NSW,Kogarah,Kogarah Presbyterian Church Hall,Cnr Kensington and Derby Sts,KOGARAH,2217.0,A,2007 Polling Places,"Match 05 - state, polling_place, postcode",-33.9666,151.132,POINT (151.132 -33.9666),543
NSW,Kogarah Bay,Congregational Church Hall,Wyee St,KOGARAH BAY,2217.0,N,2007 Polling Places,"Match 01 - state, premises, postcode",-33.9839,151.123,POINT (151.123 -33.9839),542
NSW,Kogarah Central,Kogarah High School,Gladstone St,KOGARAH,2217.0,N,2007 Polling Places,"Match 01 - state, premises, postcode",-33.9616,151.136,POINT (151.136 -33.9616),177
NSW,Kyeemagh,Kyeemagh Public School,Beehag St,KYEEMAGH,2216.0,N,2007 Polling Places,"Match 01 - state, premises, postcode",-33.9497,151.161,POINT (151.161 -33.9497),178
NSW,Monterey,St George Archers Hall,Burlington St,MONTEREY,2217.0,A,2010 Polling Places,"Match 02 - state, premises, postcode",-33.973,151.145,POINT (151.145 -33.973),550
NSW,Moorefield,Moorefield Girls High School,Marshall St,KOGARAH,2217.0,N,google geocode,GEOMETRIC_CENTER,-33.9696951,151.1392873,POINT (151.1392873 -33.9696951),543
NSW,Mortdale East,Mortdale Public School,Coleborne Ave,MORTDALE,2223.0,A,2007 Polling Places,"Match 01 - state, premises, postcode",-33.9727,151.08100000000005,POINT (151.081 -33.9727),121
NSW,Ramsgate North,Ramsgate Public School,Florence St,RAMSGATE,2217.0,N,2007 Polling Places,"Match 01 - state, premises, postcode",-33.982,151.144,POINT (151.144 -33.982),552
NSW,Rockdale,St Johns Anglican Church Hall,431 Princes Highway,ROCKDALE,2216.0,N,2007 Polling Places,"Match 05 - state, polling_place, postcode",-33.9527,151.142,POINT (151.142 -33.9527),184
NSW,Rockdale Central,Rockdale Uniting Church Hall,11 Bay St,ROCKDALE,2216.0,A,2007 Polling Places,"Match 01 - state, premises, postcode",-33.9537,151.139,POINT (151.139 -33.9537),186
NSW,Rockdale Park,St Dominic Savio School,280 West Botany St,ROCKDALE,2216.0,A,2007 Polling Places,"Match 05 - state, polling_place, postcode",-33.9507,151.149,POINT (151.149 -33.9507),184
NSW,Rockdale West,McNess Church Hall,Frederick St,ROCKDALE,2216.0,N,2007 Polling Places,"Match 05 - state, polling_place, postcode",-33.9504,151.136,POINT (151.136 -33.9504),187
NSW,St Cuthbert's,St Cuthberts Church Hall,34 Park Rd,CARLTON,2218.0,A,2007 Polling Places,"Match 05 - state, polling_place, postcode",-33.9761,151.12,POINT (151.12 -33.9761),110
NSW,St George Hospital,"St George Hospital, Coffee Shop (Ward Block)",Belgrave St,KOGARAH,2217.0,F,google geocode,GEOMETRIC_CENTER,-33.9651347,151.13372569999999,POINT (151.1337257 -33.9651347),177
NSW,Sans Souci,Sans Souci Public School,413 Rocky Point Rd,SANS SOUCI,2219.0,N,2007 Polling Places,"Match 01 - state, premises, postcode",-33.9951,151.13,POINT (151.13 -33.9951),555
NSW,Sans Souci North,Sans Souci Literary Institute,107 Ramsgate Rd,SANS SOUCI,2219.0,A,2007 Polling Places,"Match 05 - state, polling_place, postcode",-33.99,151.13299999999995,POINT (151.133 -33.99),555
NSW,South Haven,South Haven Activity Centre,35 Beach St,KOGARAH,2217.0,F,2007 Polling Places,"Match 01 - state, premises, postcode",-33.9607,151.142,POINT (151.142 -33.9607),177
NSW,The Mall,St Marks Church Hall,10 The Mall,SOUTH HURSTVILLE,2221.0,A,2007 Polling Places,"Match 05 - state, polling_place, postcode",-33.9797,151.106,POINT (151.106 -33.9797),104
NSW,Turrella,Cairnsfoot School,22 Loftus St,TURRELLA,2205.0,F,2007 Polling Places,"Match 05 - state, polling_place, postcode",-33.9319,151.145,POINT (151.145 -33.9319),194
NSW,Balaclava,Epping Boys High School,Vimiera Rd,MARSFIELD,2122.0,N,2007 Polling Places,"Match 01 - state, premises, postcode",-33.7704,151.099,POINT (151.099 -33.7704),220
NSW,Boronia Park,Boronia Park Public School,Pittwater Rd,BORONIA PARK,2111.0,N,2007 Polling Places,"Match 01 - state, premises, postcode",-33.8214,151.135,POINT (151.135 -33.8214),197
NSW,Denistone,Eastwood Baptist Hall,First Ave,EASTWOOD,2122.0,A,2007 Polling Places,"Match 01 - state, premises, postcode",-33.7924,151.083,POINT (151.083 -33.7924),200
NSW,Denistone East,Denistone East Infants School,Brabyn St,EASTWOOD,2122.0,N,2007 Polling Places,"Match 05 - state, polling_place, postcode",-33.7935,151.097,POINT (151.097 -33.7935),201
NSW,Eastview,"Australian Air League Building, Santa Rosa Park",64 Bridge Rd,RYDE,2112.0,N,2007 Polling Places,"Match 05 - state, polling_place, postcode",-33.794000000000004,151.11,POINT (151.11 -33.794),204
NSW,Eastwood,Eastwood Public School,Rowe St,EASTWOOD,2122.0,F,2007 Polling Places,"Match 01 - state, premises, postcode",-33.7928,151.078,POINT (151.078 -33.7928),205
NSW,Eastwood Heights,Eastwood Heights Public School,Lincoln St,EASTWOOD,2122.0,N,2007 Polling Places,"Match 01 - state, premises, postcode",-33.7817,151.096,POINT (151.096 -33.7817),206
NSW,Eastwood West,Corrective Services Academy,66 Terry Rd,EASTWOOD,2122.0,F,2007 Polling Places,"Match 01 - state, premises, postcode",-33.7906,151.067,POINT (151.067 -33.7906),207
NSW,Epping,Isobel Pulsford Memorial Kindergarten,46-48 Bridge St,EPPING,2121.0,A,2007 Polling Places,"Match 05 - state, polling_place, postcode",-33.7745,151.079,POINT (151.079 -33.7745),208
NSW,Epping East,Epping Community Centre,9 Oxford St,EPPING,2121.0,N,2007 Polling Places,"Match 01 - state, premises, postcode",-33.7717,151.083,POINT (151.083 -33.7717),208
NSW,Epping North,Epping North Public School,Boundary Rd,NORTH EPPING,2121.0,N,2007 Polling Places,"Match 01 - state, premises, postcode",-33.7576,151.096,POINT (151.096 -33.7576),211
NSW,Epping West,Epping West Public School,96 Carlingford Rd,EPPING,2121.0,N,2007 Polling Places,"Match 01 - state, premises, postcode",-33.7733,151.06799999999996,POINT (151.068 -33.7733),212
NSW,Ermington,Marsden High School,Winbourne St,WEST RYDE,2114.0,A,2007 Polling Places,"Match 01 - state, premises, postcode",-33.8036,151.07,POINT (151.07 -33.8036),202
NSW,Gladesville,Gladesville Public School,Victoria Rd,GLADESVILLE,2111.0,N,2007 Polling Places,"Match 01 - state, premises, postcode",-33.8326,151.127,POINT (151.127 -33.8326),215
NSW,Gladesville Central,Christ Church Hall,Victoria Rd,GLADESVILLE,2111.0,F,2007 Polling Places,"Match 05 - state, polling_place, postcode",-33.8303,151.126,POINT (151.126 -33.8303),215
NSW,Gladesville East,Gladesville Uniting Church Hall,Wharf Rd,GLADESVILLE,2111.0,N,2007 Polling Places,"Match 01 - state, premises, postcode",-33.8346,151.126,POINT (151.126 -33.8346),215
NSW,Gladesville North,Gladesville Scout Hall,cnr Ryde Rd & Westminster Rd,GLADESVILLE,2111.0,N,2007 Polling Places,"Match 01 - state, premises, postcode",-33.8228,151.128,POINT (151.128 -33.8228),197
NSW,Gladesville West,Garage,119 Tennyson Rd,TENNYSON,2111.0,N,2007 Polling Places,"Match 05 - state, polling_place, postcode",-33.8275,151.12,POINT (151.12 -33.8275),216
NSW,Hunters Hill,All Saints Church Hall,Ambrose St,HUNTERS HILL,2110.0,A,2007 Polling Places,"Match 05 - state, polling_place, postcode",-33.836,151.156,POINT (151.156 -33.836),1911
NSW,Hunters Hill West,St Marks Church Hall,Figtree St,HUNTERS HILL,2110.0,N,2007 Polling Places,"Match 05 - state, polling_place, postcode",-33.8316,151.143,POINT (151.143 -33.8316),1912
NSW,Kent Road,Kent Road Public School,Herring Rd,EASTWOOD,2122.0,F,2007 Polling Places,"Match 01 - state, premises, postcode",-33.7864,151.109,POINT (151.109 -33.7864),217
NSW,Kittys Creek,Montessori Pre-School,Cressy Rd,EAST RYDE,2113.0,N,2007 Polling Places,"Match 01 - state, premises, postcode",-33.8064,151.13,POINT (151.13 -33.8064),228
NSW,Lyon Park,Morling College,120 Herring Rd,MARSFIELD,2122.0,A,2007 Polling Places,"Match 01 - state, premises, postcode",-33.7789,151.116,POINT (151.116 -33.7789),218
NSW,Marsfield,St Anthonys Parish Hall,54 Agincourt Rd,MARSFIELD,2122.0,F,2007 Polling Places,"Match 05 - state, polling_place, postcode",-33.7805,151.102,POINT (151.102 -33.7805),219
NSW,Meadowbank,T.A.F.E. College,"Binghi Cottage, See St",MEADOWBANK,2114.0,N,2007 Polling Places,"Match 01 - state, premises, postcode",-33.8156,151.091,POINT (151.091 -33.8156),221
NSW,Parkes Street,School Of Horticulture,Parkes St,WEST RYDE,2114.0,F,2007 Polling Places,"Match 01 - state, premises, postcode",-33.8085,151.1,POINT (151.1 -33.8085),224
NSW,Putney,Putney Public School,193 Morrison Rd,PUTNEY,2112.0,F,2007 Polling Places,"Match 01 - state, premises, postcode",-33.8249,151.111,POINT (151.111 -33.8249),225
NSW,Royal Ryde Homes,Weemala Homes,259 Morrison Rd,RYDE,2112.0,F,2007 Polling Places,"Match 01 - state, premises, postcode",-33.8221,151.107,POINT (151.107 -33.8221),231
NSW,Ryde,Ryde Masonic Hall,142 Blaxland Rd,RYDE,2112.0,N,2007 Polling Places,"Match 01 - state, premises, postcode",-33.8129,151.105,POINT (151.105 -33.8129),227
NSW,Ryde Central,Ryde Baptist Church Hall,Dobson Cres,RYDE,2112.0,N,2007 Polling Places,"Match 01 - state, premises, postcode",-33.8059,151.113,POINT (151.113 -33.8059),235
NSW,Ryde East,Ryde East Public School,12 Twin Rd,EAST RYDE,2113.0,F,2007 Polling Places,"Match 01 - state, premises, postcode",-33.8063,151.126,POINT (151.126 -33.8063),228
NSW,Ryde Heights,Ryde Courthouse,814 Victoria Rd,RYDE,2112.0,N,2007 Polling Places,"Match 05 - state, polling_place, postcode",-33.8178,151.09799999999996,POINT (151.098 -33.8178),229
NSW,Ryde Hospital,Ryde Hospital,Denistone Rd,EASTWOOD,2122.0,F,2007 Polling Places,"Match 01 - state, premises, postcode",-33.7929,151.089,POINT (151.089 -33.7929),200
NSW,Ryde North,North Ryde Public School,Cox's Rd,NORTH RYDE,2113.0,N,2007 Polling Places,"Match 01 - state, premises, postcode",-33.7939,151.12,POINT (151.12 -33.7939),230
NSW,Ryde South,St Philip's Church,17 Douglas St,RYDE,2112.0,N,2007 Polling Places,"Match 05 - state, polling_place, postcode",-33.824,151.106,POINT (151.106 -33.824),231
NSW,Truscott,Truscott Street Public School,Truscott St,NORTH RYDE,2113.0,F,2007 Polling Places,"Match 01 - state, premises, postcode",-33.7947,151.13,POINT (151.13 -33.7947),236
NSW,Water Tanks,The Living Way Church,85 North Rd,RYDE,2112.0,A,2007 Polling Places,"Match 01 - state, premises, postcode",-33.7982,151.10299999999995,POINT (151.103 -33.7982),204
NSW,West Ryde,West Ryde Public School,6 Endeavour St,WEST RYDE,2114.0,N,2007 Polling Places,"Match 01 - state, premises, postcode",-33.8087,151.085,POINT (151.085 -33.8087),237
NSW,Wicks,Peter Board High School,Wicks Rd,NORTH RYDE,2113.0,N,2007 Polling Places,"Match 05 - state, polling_place, postcode",-33.7884,151.132,POINT (151.132 -33.7884),236
NSW,Woolwich,Marist Sisters' College,66a Woolwich Rd,WOOLWICH,2110.0,F,2007 Polling Places,"Match 01 - state, premises, postcode",-33.8394,151.167,POINT (151.167 -33.8394),1918
NSW,Arcadia,Arcadia Public School,140 Arcadia Rd,ARCADIA,2159.0,N,2007 Polling Places,"Match 01 - state, premises, postcode",-33.6231,151.05100000000004,POINT (151.051 -33.6231),240
NSW,Asquith,Asquith Public School,Dudley St,ASQUITH,2077.0,F,2007 Polling Places,"Match 01 - state, premises, postcode",-33.6855,151.112,POINT (151.112 -33.6855),241
NSW,Beecroft,Beecroft Public School,90-98 Beecroft Rd,BEECROFT,2119.0,N,2007 Polling Places,"Match 01 - state, premises, postcode",-33.7514,151.065,POINT (151.065 -33.7514),242
NSW,Beecroft West,Roselea Public School,449 North Rocks Rd,CARLINGFORD,2118.0,F,2007 Polling Places,"Match 01 - state, premises, postcode",-33.7654,151.053,POINT (151.053 -33.7654),226
NSW,Berowra,Berowra Public School,Hillcrest Rd,BEROWRA,2081.0,N,2007 Polling Places,"Match 01 - state, premises, postcode",-33.6181,151.14700000000005,POINT (151.147 -33.6181),243
NSW,Berowra North,Wideview Public School,Wideview Rd,BEROWRA HEIGHTS,2082.0,F,2007 Polling Places,"Match 01 - state, premises, postcode",-33.6084,151.143,POINT (151.143 -33.6084),244
NSW,Berowra Waters,Marina Boatshed,199 Bay Rd,BEROWRA WATERS,2082.0,A,2007 Polling Places,"Match 05 - state, polling_place, postcode",-33.6008,151.119,POINT (151.119 -33.6008),244
NSW,Bowden Brae,Bowden Brae Retirement Village,40 Pennant Hills Rd,NORMANHURST,2076.0,F,2007 Polling Places,"Match 01 - state, premises, postcode",-33.7214,151.10299999999995,POINT (151.103 -33.7214),277
NSW,Brooklyn,Brooklyn Public School,106 Brooklyn Rd,BROOKLYN,2253.0,N,google geocode,ROOFTOP,-33.548282199999996,151.2148497,POINT (151.2148497 -33.5482822),246
NSW,Cheltenham,Cheltenham Girls High School,The Promenade,CHELTENHAM,2119.0,N,2007 Polling Places,"Match 01 - state, premises, postcode",-33.7578,151.07399999999996,POINT (151.074 -33.7578),248
NSW,Cherrybrook,Cherrybrook Public School,131 New Line Rd,CHERRYBROOK,2126.0,A,2007 Polling Places,"Match 01 - state, premises, postcode",-33.7314,151.042,POINT (151.042 -33.7314),249
NSW,Cherrybrook South,Long Day Care Centre,69 Cedarwood Dr,CHERRYBROOK,2126.0,F,2007 Polling Places,"Match 01 - state, premises, postcode",-33.7336,151.048,POINT (151.048 -33.7336),252
NSW,Cowan,Cowan Public School,Chandler Ave,COWAN,2081.0,N,2007 Polling Places,"Match 01 - state, premises, postcode",-33.5885,151.16899999999995,POINT (151.169 -33.5885),253
NSW,Dural,Dural Public School,622 Old Northern Rd,DURAL,2158.0,A,2007 Polling Places,"Match 01 - state, premises, postcode",-33.6857,151.026,POINT (151.026 -33.6857),255
NSW,Epping Heights,Epping Heights Public School,128 Kent St,EPPING,2121.0,N,2007 Polling Places,"Match 01 - state, premises, postcode",-33.7627,151.07399999999996,POINT (151.074 -33.7627),210
NSW,Galston,Galston Public School,School Rd,GALSTON,2159.0,N,2007 Polling Places,"Match 01 - state, premises, postcode",-33.648,151.045,POINT (151.045 -33.648),257
NSW,Glenorie,Glenorie Public School,1731 Old Northern Rd,GLENORIE,2157.0,A,2007 Polling Places,"Match 01 - state, premises, postcode",-33.5987,151.00799999999995,POINT (151.008 -33.5987),259
NSW,Hornsby,Technical College,205 Pacific Hwy,HORNSBY,2077.0,N,2007 Polling Places,"Match 01 - state, premises, postcode",-33.7,151.097,POINT (151.097 -33.7),262
NSW,Hornsby Heights,Hornsby Heights Public School,Somerville Rd,HORNSBY HEIGHTS,2077.0,N,2007 Polling Places,"Match 01 - state, premises, postcode",-33.6706,151.09799999999996,POINT (151.098 -33.6706),265
NSW,Hornsby Hospital,Hornsby Hospital,Palmerston Rd,HORNSBY,2077.0,F,2007 Polling Places,"Match 01 - state, premises, postcode",-33.7019,151.112,POINT (151.112 -33.7019),383
NSW,Hornsby North,Hornsby North Public School,Ida St,HORNSBY,2077.0,A,2007 Polling Places,"Match 01 - state, premises, postcode",-33.6833,151.09799999999996,POINT (151.098 -33.6833),266
NSW,Hornsby South,Hornsby Girls High School,Edgeworth David Ave,HORNSBY,2077.0,N,2007 Polling Places,"Match 01 - state, premises, postcode",-33.7064,151.102,POINT (151.102 -33.7064),264
NSW,Hornsby West,Uniting Church Hall,Cnr Frederick & William Sts,HORNSBY,2077.0,A,2007 Polling Places,"Match 05 - state, polling_place, postcode",-33.7045,151.097,POINT (151.097 -33.7045),268
NSW,John Purchase,John Purchase Public School,Purchase Rd,CHERRYBROOK,2126.0,F,2007 Polling Places,"Match 01 - state, premises, postcode",-33.719,151.039,POINT (151.039 -33.719),251
NSW,Middle Dural,Middle Dural Public School,Old Northern Rd,MIDDLE DURAL,2158.0,N,2007 Polling Places,"Match 01 - state, premises, postcode",-33.6444,151.023,POINT (151.023 -33.6444),272
NSW,Mount Colah,Mount Colah Public School,Telopea St,MOUNT COLAH,2079.0,N,2007 Polling Places,"Match 01 - state, premises, postcode",-33.6726,151.11700000000005,POINT (151.117 -33.6726),273
NSW,Mount Kuring-Gai,Mount Kuring-Gai Public School,Leeming St,MOUNT KURING-GAI,2080.0,N,2007 Polling Places,"Match 01 - state, premises, postcode",-33.6575,151.136,POINT (151.136 -33.6575),274
NSW,Normanhurst,Normanhurst Public School,Pennant Hills Rd,NORMANHURST,2076.0,N,2007 Polling Places,"Match 01 - state, premises, postcode",-33.7237,151.09799999999996,POINT (151.098 -33.7237),277
NSW,Normanhurst North,Hornsby South Public School,Clarke Rd,HORNSBY,2077.0,F,2007 Polling Places,"Match 01 - state, premises, postcode",-33.7135,151.096,POINT (151.096 -33.7135),267
NSW,Normanhurst West,Normanhurst West Public School,Dartford Rd,THORNLEIGH,2120.0,F,2007 Polling Places,"Match 01 - state, premises, postcode",-33.7208,151.089,POINT (151.089 -33.7208),278
NSW,Pennant Hills,Pennant Hills High School,Laurence Street,PENNANT HILLS,2120.0,N,2007 Polling Places,"Match 01 - state, premises, postcode",-33.7342,151.062,POINT (151.062 -33.7342),280
NSW,Thompsons Corner,Pennant Hills West Public School,Church St,WEST PENNANT HILLS,2125.0,N,2007 Polling Places,"Match 05 - state, polling_place, postcode",-33.7456,151.05100000000004,POINT (151.051 -33.7456),284
NSW,Thornleigh,Chinese & Aust Baptist Church,235 Pennant Hills Rd,THORNLEIGH,2120.0,N,2007 Polling Places,"Match 01 - state, premises, postcode",-33.7282,151.085,POINT (151.085 -33.7282),285
NSW,Turramurra South,Turramurra South Public School,Kissing Point Rd,SOUTH TURRAMURRA,2074.0,N,2007 Polling Places,"Match 05 - state, polling_place, postcode",-33.7446,151.113,POINT (151.113 -33.7446),378
NSW,Waitara,Waitara Public School,Edgeworth David Ave,WAHROONGA,2076.0,A,2007 Polling Places,"Match 01 - state, premises, postcode",-33.7081,151.111,POINT (151.111 -33.7081),382
NSW,Waitara South,Mcquoin Park,McAuley Pl,WAITARA,2077.0,F,2007 Polling Places,"Match 01 - state, premises, postcode",-33.7119,151.105,POINT (151.105 -33.7119),264
NSW,Warrawee,Warrawee Public School,Pacific Hwy,WARRAWEE,2074.0,N,2007 Polling Places,"Match 01 - state, premises, postcode",-33.73,151.123,POINT (151.123 -33.73),384
NSW,Westleigh,Thornleigh West Public School,Giblett Ave,THORNLEIGH,2120.0,F,2007 Polling Places,"Match 01 - state, premises, postcode",-33.7242,151.072,POINT (151.072 -33.7242),286
NSW,Bankstown,Bankstown Public School,Restwell St,BANKSTOWN,2200.0,N,2007 Polling Places,"Match 01 - state, premises, postcode",-33.9209,151.034,POINT (151.034 -33.9209),295
NSW,Bankstown Central,Bankstown Masonic Centre,21 Restwell St,BANKSTOWN,2200.0,A,2007 Polling Places,"Match 01 - state, premises, postcode",-33.9195,151.035,POINT (151.035 -33.9195),297
NSW,Bankstown North,Bankstown North Public School,322 Hume Hwy,BANKSTOWN,2200.0,N,2007 Polling Places,"Match 01 - state, premises, postcode",-33.906,151.034,POINT (151.034 -33.906),299
NSW,Bankstown South,Bankstown South Infants School,14 Stacey St South,BANKSTOWN,2200.0,N,2007 Polling Places,"Match 01 - state, premises, postcode",-33.9306,151.03799999999995,POINT (151.038 -33.9306),2658
NSW,Bankstown West,Bankstown West Public School,Dutton St,BANKSTOWN,2200.0,N,2007 Polling Places,"Match 01 - state, premises, postcode",-33.9164,151.02,POINT (151.02 -33.9164),300
NSW,Bass Hill,Public School,Horton St,BASS HILL,2197.0,N,2007 Polling Places,"Match 05 - state, polling_place, postcode",-33.9047,151.006,POINT (151.006 -33.9047),301
NSW,Bass Hill Central,Chester Hill Scout Hall,Baden Ave,BASS HILL,2197.0,A,google geocode,GEOMETRIC_CENTER,-33.894625,150.9965,POINT (150.9965 -33.894625),302
NSW,Bass Hill West,Bass High School,Arundle Rd,BASS HILL,2197.0,N,2007 Polling Places,"Match 01 - state, premises, postcode",-33.8996,150.99,POINT (150.99 -33.8996),302
NSW,Birrong,Birrong Public School,132 Auburn Rd,BIRRONG,2143.0,A,2007 Polling Places,"Match 01 - state, premises, postcode",-33.8958,151.02,POINT (151.02 -33.8958),305
NSW,Chester Hill,Chester Hill Senior Citizens Hall,Chester Hill Rd,CHESTER HILL,2162.0,A,2007 Polling Places,"Match 05 - state, polling_place, postcode",-33.8845,150.999,POINT (150.999 -33.8845),308
NSW,Chester Hill North,Chester Hill High School,Miller Rd,CHESTER HILL,2162.0,N,2007 Polling Places,"Match 01 - state, premises, postcode",-33.8737,150.996,POINT (150.996 -33.8737),310
NSW,Chullora,Greenacre Baptist Church,40 Shellcote Rd,CHULLORA,2190.0,N,2007 Polling Places,"Match 01 - state, premises, postcode",-33.8943,151.05700000000004,POINT (151.057 -33.8943),2669
NSW,Condell Park,Condell Park Public School,Augusta St,CONDELL PARK,2200.0,N,2007 Polling Places,"Match 01 - state, premises, postcode",-33.9255,151.013,POINT (151.013 -33.9255),311
NSW,Condell Park North,St Clements Anglican Church,193 Edgar St,CONDELL PARK,2200.0,A,2007 Polling Places,"Match 05 - state, polling_place, postcode",-33.9227,151.013,POINT (151.013 -33.9227),312
NSW,Condell Park South,Bankstown Senior College,Eldridge Rd,BANKSTOWN,2200.0,N,2007 Polling Places,"Match 01 - state, premises, postcode",-33.9292,151.024,POINT (151.024 -33.9292),313
NSW,Georges Hall,Georges Hall Public School,Pennington Ave,GEORGES HALL,2198.0,A,2007 Polling Places,"Match 01 - state, premises, postcode",-33.9131,150.993,POINT (150.993 -33.9131),316
NSW,Gosling Park,Bankstown S.E.S. Gosling Park,Chiswick Rd,GREENACRE,2190.0,N,2007 Polling Places,"Match 05 - state, polling_place, postcode",-33.905,151.056,POINT (151.056 -33.905),2677
NSW,Greenacre,Greenacre YMCA Roberts Park,Waterloo Rd,GREENACRE,2190.0,F,2007 Polling Places,"Match 01 - state, premises, postcode",-33.9122,151.05700000000004,POINT (151.057 -33.9122),2676
NSW,Greenacre West,Holy Savior Melkite Catholic School,80 Waterloo Road,GREENACRE,2190.0,A,2007 Polling Places,"Match 05 - state, polling_place, postcode",-33.9069,151.049,POINT (151.049 -33.9069),2679
NSW,Mount Lewis,Mount Lewis Infants School,Noble Ave,MOUNT LEWIS,2190.0,A,2007 Polling Places,"Match 01 - state, premises, postcode",-33.9158,151.05,POINT (151.05 -33.9158),2691
NSW,Parry Park,Wiley Park Scout Hall,33 Koala Rd,WILEY PARK,2195.0,F,google geocode,ROOFTOP,-33.9161467,151.06498330000002,POINT (151.0649833 -33.9161467),2702
NSW,Punchbowl Central,Punchbowl Boys High School,Kelly St,PUNCHBOWL,2196.0,N,2007 Polling Places,"Match 01 - state, premises, postcode",-33.9235,151.05200000000005,POINT (151.052 -33.9235),2694
NSW,St Pauls,St Pauls Church Bankstown,459 Chapel Rd,BANKSTOWN,2200.0,A,2007 Polling Places,"Match 05 - state, polling_place, postcode",-33.9133,151.035,POINT (151.035 -33.9133),298
NSW,Sefton,Sefton Catholic School,Proctor Pde,SEFTON,2162.0,N,2007 Polling Places,"Match 01 - state, premises, postcode",-33.8872,151.009,POINT (151.009 -33.8872),327
NSW,Villawood Central,Villawood Sacred Heart Church,122 Carawatha St,VILLAWOOD,2163.0,N,google geocode,RANGE_INTERPOLATED,-33.8895498,150.9759353,POINT (150.9759353 -33.8895498),963
NSW,Villawood East,Villawood East Public School,Lowana St,VILLAWOOD,2163.0,N,2007 Polling Places,"Match 01 - state, premises, postcode",-33.8895,150.986,POINT (150.986 -33.8895),334
NSW,Wiley Park West,Wiley Park Public School,95 King Georges Rd,WILEY PARK,2195.0,A,2007 Polling Places,"Match 01 - state, premises, postcode",-33.924,151.06799999999996,POINT (151.068 -33.924),2702
NSW,Yagoona,Yagoona Senior Citizens Centre,Cooper Rd,YAGOONA,2199.0,A,2007 Polling Places,"Match 01 - state, premises, postcode",-33.9056,151.025,POINT (151.025 -33.9056),335
NSW,Yagoona West,St Marks Church Yagoona,211 Auburn Rd,YAGOONA,2199.0,A,2007 Polling Places,"Match 05 - state, polling_place, postcode",-33.9064,151.02100000000004,POINT (151.021 -33.9064),336
NSW,Belrose,Wakehurst Public School,Glen St,BELROSE,2085.0,N,2007 Polling Places,"Match 01 - state, premises, postcode",-33.7389,151.218,POINT (151.218 -33.7389),1555
NSW,Belrose North,Belrose Public School,Ralston Ave,BELROSE,2085.0,A,2007 Polling Places,"Match 01 - state, premises, postcode",-33.7277,151.216,POINT (151.216 -33.7277),1556
NSW,Castle Cove,Castle Cove Public School,Kendall Rd,CASTLE COVE,2069.0,N,2007 Polling Places,"Match 01 - state, premises, postcode",-33.782,151.201,POINT (151.201 -33.782),339
NSW,Chatswood,St Andrews Presbyterian Church,37 Anderson St,CHATSWOOD,2067.0,F,2007 Polling Places,"Match 05 - state, polling_place, postcode",-33.7945,151.184,POINT (151.184 -33.7945),340
NSW,Chatswood North,St Paul's Anglican Church Hall,1 View Street,CHATSWOOD,2067.0,N,2007 Polling Places,"Match 05 - state, polling_place, postcode",-33.7916,151.18,POINT (151.18 -33.7916),340
NSW,Chatswood West,Chatswood Public School,Pacific Hwy,CHATSWOOD,2067.0,A,2007 Polling Places,"Match 01 - state, premises, postcode",-33.7986,151.178,POINT (151.178 -33.7986),342
NSW,Frenchs Forest,Frenchs Forest Public School,Ann St,FRENCHS FOREST,2086.0,A,2007 Polling Places,"Match 01 - state, premises, postcode",-33.7517,151.225,POINT (151.225 -33.7517),1571
NSW,Gordon,Ku-ring-gai Municipal Council Chambers,818 Pacific Hwy,GORDON,2072.0,A,2007 Polling Places,"Match 01 - state, premises, postcode",-33.7541,151.15200000000004,POINT (151.152 -33.7541),344
NSW,Gordon East,Gordon East Public School,Rosedale Rd,GORDON,2072.0,N,2007 Polling Places,"Match 01 - state, premises, postcode",-33.7463,151.157,POINT (151.157 -33.7463),345
NSW,Gordon West,Gordon West Public School,Ryde Rd,PYMBLE,2073.0,N,2007 Polling Places,"Match 01 - state, premises, postcode",-33.7601,151.139,POINT (151.139 -33.7601),347
NSW,Kambora,Kambora Public School,Kambora & Woolrych Rd's,DAVIDSON,2085.0,A,2007 Polling Places,"Match 01 - state, premises, postcode",-33.7398,151.195,POINT (151.195 -33.7398),1573
NSW,Killara,St Martins Anglican Church Hall,9B Arnold St,KILLARA,2071.0,N,2007 Polling Places,"Match 05 - state, polling_place, postcode",-33.7655,151.165,POINT (151.165 -33.7655),353
NSW,Killara East,Killara High School,Koola Ave,KILLARA,2071.0,A,2007 Polling Places,"Match 01 - state, premises, postcode",-33.7554,151.175,POINT (151.175 -33.7554),354
NSW,Kissing Point,South Turramurra Kindergarten,10A Auluba Rd,SOUTH TURRAMURRA,2074.0,N,2007 Polling Places,"Match 05 - state, polling_place, postcode",-33.7497,151.111,POINT (151.111 -33.7497),378
NSW,Lady Davidson Hospital,Lady Davidson Hospital,Bobbin Head Rd,TURRAMURRA NORTH,2074.0,F,2007 Polling Places,"Match 01 - state, premises, postcode",-33.6905,151.149,POINT (151.149 -33.6905),379
NSW,Lindfield,St Albans Anglican Church Hall,Lindfield Ave,LINDFIELD,2070.0,N,2007 Polling Places,"Match 05 - state, polling_place, postcode",-33.7757,151.17,POINT (151.17 -33.7757),356
NSW,Lindfield East,Lindfield East Public School,Tryon Rd,LINDFIELD,2070.0,A,2007 Polling Places,"Match 01 - state, premises, postcode",-33.7681,151.184,POINT (151.184 -33.7681),357
NSW,Lindfield North,Lindfield Primary School,Pacific Hwy,LINDFIELD,2070.0,N,2007 Polling Places,"Match 01 - state, premises, postcode",-33.7771,151.168,POINT (151.168 -33.7771),358
NSW,Lindfield West,Beaumont Road Public School,17 Beaumont Rd,KILLARA,2071.0,N,2007 Polling Places,"Match 01 - state, premises, postcode",-33.7745,151.14700000000005,POINT (151.147 -33.7745),359
NSW,Mimosa,Mimosa Public School,Mimosa St,FRENCHS FOREST,2086.0,A,2007 Polling Places,"Match 01 - state, premises, postcode",-33.7439,151.204,POINT (151.204 -33.7439),1573
NSW,Pymble,Mount St Bernard School,Cnr Pacific Hwy & Bobbin Head Rd,PYMBLE,2073.0,A,2007 Polling Places,"Match 05 - state, polling_place, postcode",-33.7395,151.137,POINT (151.137 -33.7395),361
NSW,Pymble North,Pymble Public School,Crown Rd,PYMBLE,2073.0,A,2007 Polling Places,"Match 01 - state, premises, postcode",-33.7327,151.143,POINT (151.143 -33.7327),362
NSW,Pymble West,Pymble West Public School,Apollo Ave,WEST PYMBLE,2073.0,N,2007 Polling Places,"Match 01 - state, premises, postcode",-33.7636,151.124,POINT (151.124 -33.7636),363
NSW,Roseville,Roseville Uniting Church Hall,7 Lord St,ROSEVILLE,2069.0,F,2007 Polling Places,"Match 05 - state, polling_place, postcode",-33.7853,151.18,POINT (151.18 -33.7853),364
NSW,Roseville Chase,Community Hall,6 Babbage Rd,ROSEVILLE,2069.0,N,2007 Polling Places,"Match 01 - state, premises, postcode",-33.7795,151.195,POINT (151.195 -33.7795),365
NSW,Roseville East,Roseville Public School,Archbold Rd,ROSEVILLE,2069.0,F,2007 Polling Places,"Match 01 - state, premises, postcode",-33.782,151.188,POINT (151.188 -33.782),365
NSW,Roseville South,St Barnabas Anglican Church,30 William St East,ROSEVILLE,2069.0,A,2007 Polling Places,"Match 05 - state, polling_place, postcode",-33.7869,151.189,POINT (151.189 -33.7869),366
NSW,St Ives,St Ives Community Hall,"Village Green, Memorial Ave",ST IVES,2075.0,A,2007 Polling Places,"Match 01 - state, premises, postcode",-33.7271,151.162,POINT (151.162 -33.7271),367
NSW,St Ives Chase,St Ives North Scout Hall,Warrimoo Ave,ST IVES CHASE,2075.0,A,2007 Polling Places,"Match 01 - state, premises, postcode",-33.7164,151.159,POINT (151.159 -33.7164),369
NSW,St Ives North,St Ives North Public School,87 Memorial Ave,ST IVES,2075.0,F,2007 Polling Places,"Match 01 - state, premises, postcode",-33.7187,151.164,POINT (151.164 -33.7187),369
NSW,St Ives Park,St Ives Park Public School,Acron Road,ST IVES,2075.0,N,2007 Polling Places,"Match 01 - state, premises, postcode",-33.7383,151.167,POINT (151.167 -33.7383),371
NSW,St Ives South,St Ives High School,Yarrabung Rd,ST IVES,2075.0,N,2007 Polling Places,"Match 01 - state, premises, postcode",-33.7403,151.167,POINT (151.167 -33.7403),371
NSW,Turramurra,St James Anglican Church Hall,King St,TURRAMURRA,2074.0,A,2007 Polling Places,"Match 05 - state, polling_place, postcode",-33.7292,151.128,POINT (151.128 -33.7292),376
NSW,Turramurra Central,Turramurra Uniting Church Hall,Turramurra Ave,TURRAMURRA,2074.0,A,2007 Polling Places,"Match 01 - state, premises, postcode",-33.7293,151.132,POINT (151.132 -33.7293),376
NSW,Turramurra North,Turramurra North Public School,Bobbin Head Rd,TURRAMURRA,2074.0,N,2007 Polling Places,"Match 01 - state, premises, postcode",-33.7147,151.14700000000005,POINT (151.147 -33.7147),377
NSW,Wahroonga,St Andrews Anglican Church Hall,Cleveland St,WAHROONGA,2076.0,N,2007 Polling Places,"Match 05 - state, polling_place, postcode",-33.7156,151.118,POINT (151.118 -33.7156),380
NSW,Wahroonga East,Wahroonga Public School,71 Burns Rd,WAHROONGA,2076.0,A,2007 Polling Places,"Match 01 - state, premises, postcode",-33.7155,151.128,POINT (151.128 -33.7155),381
NSW,Barry,Community Hall,Selwyn St,BARRY,2799.0,N,2007 Polling Places,"Match 05 - state, polling_place, postcode",-33.6466,149.27100000000004,POINT (149.271 -33.6466),385
NSW,Bathurst,Bathurst Public School,George St,BATHURST,2795.0,N,2007 Polling Places,"Match 01 - state, premises, postcode",-33.4217,149.571,POINT (149.571 -33.4217),386
NSW,Bathurst Central,Catholic Cathedral Parish Centre,Keppel St,BATHURST,2795.0,A,2007 Polling Places,"Match 01 - state, premises, postcode",-33.42,149.577,POINT (149.577 -33.42),387
NSW,Bathurst City,Walshaw Hall,Church St,BATHURST,2795.0,A,2007 Polling Places,"Match 05 - state, polling_place, postcode",-33.4163,149.58,POINT (149.58 -33.4163),388
NSW,Bathurst High,Bathurst High School,Hope St,BATHURST,2795.0,N,2007 Polling Places,"Match 01 - state, premises, postcode",-33.4129,149.569,POINT (149.569 -33.4129),389
NSW,Bathurst Hospital,Bathurst Base Hospital,Howick St,BATHURST,2795.0,N,2007 Polling Places,"Match 05 - state, polling_place, postcode",-33.406,149.571,POINT (149.571 -33.406),456
NSW,Bathurst St Vincents,St Vincents Hospital,Gormans Hill Rd,BATHURST,2795.0,A,2007 Polling Places,"Match 01 - state, premises, postcode",-33.4348,149.59,POINT (149.59 -33.4348),387
NSW,Bathurst South,Bathurst South Public School,Havannah St,BATHURST,2795.0,N,2007 Polling Places,"Match 01 - state, premises, postcode",-33.4337,149.569,POINT (149.569 -33.4337),392
NSW,Bathurst West,Bathurst West Public School,Suttor St,BATHURST,2795.0,A,2007 Polling Places,"Match 01 - state, premises, postcode",-33.4118,149.559,POINT (149.559 -33.4118),393
NSW,Black Springs,Black Springs Public School,Avoca St,BLACK SPRINGS,2787.0,A,2007 Polling Places,"Match 01 - state, premises, postcode",-33.8463,149.74200000000005,POINT (149.742 -33.8463),394
NSW,Blayney,Blayney Public School,Lindsay St,BLAYNEY,2799.0,A,2007 Polling Places,"Match 01 - state, premises, postcode",-33.529,149.252,POINT (149.252 -33.529),395
NSW,Bletchington,Bletchington Public School,Matthews Ave,ORANGE,2800.0,A,2007 Polling Places,"Match 01 - state, premises, postcode",-33.2693,149.10299999999995,POINT (149.103 -33.2693),396
NSW,Bloomfield Hospital,Bloomfield Hospital Recreation Hall,Forest Rd,ORANGE,2800.0,A,2007 Polling Places,"Match 01 - state, premises, postcode",-33.3199,149.094,POINT (149.094 -33.3199),450
NSW,Borenore,Borenore Public School,Forbes Rd,BORENORE,2800.0,N,2007 Polling Places,"Match 01 - state, premises, postcode",-33.251,148.984,POINT (148.984 -33.251),398
NSW,Bowen,Bowen Public School,Park St,ORANGE,2800.0,A,2007 Polling Places,"Match 01 - state, premises, postcode",-33.2802,149.118,POINT (149.118 -33.2802),399
NSW,Bowenfels South,Presbyterian Church Hall,Great Western Hwy,SOUTH BOWENFELS,2790.0,N,2007 Polling Places,"Match 01 - state, premises, postcode",-33.5152,150.121,POINT (150.121 -33.5152),400
NSW,Burraga,Burraga Public School,Isabella St,BURRAGA,2795.0,N,2007 Polling Places,"Match 05 - state, polling_place, postcode",-33.9474,149.53,POINT (149.53 -33.9474),401
NSW,Bylong,Bylong Upper Public School,Upper Bylong Rd,BYLONG,2849.0,N,2007 Polling Places,"Match 01 - state, premises, postcode",-32.3988,150.128,POINT (150.128 -32.3988),1786
NSW,Calare School,Calare Public School,Frost Street,ORANGE,2800.0,A,2007 Polling Places,"Match 01 - state, premises, postcode",-33.2872,149.08,POINT (149.08 -33.2872),402
NSW,Canobolas,Canobolas Public School,Towac Valley Rd,ORANGE,2800.0,N,2007 Polling Places,"Match 01 - state, premises, postcode",-33.3062,149.047,POINT (149.047 -33.3062),403
NSW,Canowindra,Canowindra High School,Browns Ave,CANOWINDRA,2804.0,N,2007 Polling Places,"Match 01 - state, premises, postcode",-33.5581,148.675,POINT (148.675 -33.5581),404
NSW,Capertee,Capertee Public School,Mudgee Rd,CAPERTEE,2846.0,N,2007 Polling Places,"Match 05 - state, polling_place, postcode",-33.1462,149.987,POINT (149.987 -33.1462),405
NSW,Carcoar,Carcoar Public School,Icely St,CARCOAR,2791.0,N,2007 Polling Places,"Match 01 - state, premises, postcode",-33.6123,149.142,POINT (149.142 -33.6123),406
NSW,Cargo,Cargo Public School,Hutton St,CARGO,2800.0,N,2007 Polling Places,"Match 01 - state, premises, postcode",-33.4281,148.809,POINT (148.809 -33.4281),407
NSW,Cooerwull,Cooerwull Public School,319 Main St,LITHGOW,2790.0,N,2007 Polling Places,"Match 01 - state, premises, postcode",-33.4842,150.141,POINT (150.141 -33.4842),408
NSW,Cudal,Cudal Public School,Toogong St,CUDAL,2864.0,N,2007 Polling Places,"Match 01 - state, premises, postcode",-33.2869,148.741,POINT (148.741 -33.2869),409
NSW,Cullen Bullen,Cullen Bullen Progress Hall,Mudgee Rd,CULLEN BULLEN,2790.0,A,2007 Polling Places,"Match 01 - state, premises, postcode",-33.2995,150.033,POINT (150.033 -33.2995),410
NSW,Cumnock,Memorial Hall,Obley St,CUMNOCK,2867.0,N,2007 Polling Places,"Match 01 - state, premises, postcode",-32.0164,149.39,POINT (149.39 -32.0164),2090
NSW,Eglinton,Eglinton Public School,Alexander St,EGLINTON,2795.0,A,2007 Polling Places,"Match 01 - state, premises, postcode",-33.0385,149.414,POINT (149.414 -33.0385),423
NSW,Errowanbang,Errowanbang Public School,Errowanbang Rd,ERROWANBANG,2792.0,N,google geocode,RANGE_INTERPOLATED,-33.501699,149.05276369999999,POINT (149.0527637 -33.501699),468
NSW,Euchareena,Euchareena Public School,Walter St,EUCHAREENA,2866.0,N,2007 Polling Places,"Match 01 - state, premises, postcode",-32.9377,149.091,POINT (149.091 -32.9377),469
NSW,Eugowra,Eugowra Public School,Hill St,EUGOWRA,2806.0,N,2007 Polling Places,"Match 01 - state, premises, postcode",-33.4237,148.369,POINT (148.369 -33.4237),414
NSW,Glen Alice,Glen Alice Public School,Beaumont St,GLEN ALICE,2849.0,N,2007 Polling Places,"Match 01 - state, premises, postcode",-33.0435,150.214,POINT (150.214 -33.0435),416
NSW,Glenroi,Glenroi Primary School,Maxwell Ave,ORANGE,2800.0,A,2007 Polling Places,"Match 01 - state, premises, postcode",-33.2995,149.111,POINT (149.111 -33.2995),417
NSW,Hampton,Hampton Public School,Jenolan Caves Rd,HAMPTON,2790.0,N,2007 Polling Places,"Match 01 - state, premises, postcode",-33.8181,150.02200000000005,POINT (150.022 -33.8181),419
NSW,Hartley,Hartley Old Public School,Mid Western Rd,HARTLEY,2790.0,N,2007 Polling Places,"Match 01 - state, premises, postcode",-33.551,150.188,POINT (150.188 -33.551),421
NSW,Hermitage,Hermitage Progress Association Hall,Albert St,LITHGOW,2790.0,N,2007 Polling Places,"Match 01 - state, premises, postcode",-33.4799,150.149,POINT (150.149 -33.4799),422
NSW,Hill End,Hill End Public School,Tambaroora St,HILL END,2850.0,N,2007 Polling Places,"Match 01 - state, premises, postcode",-33.0349,149.416,POINT (149.416 -33.0349),423
NSW,Ilford,Ilford Public School,Mudgee Rd,ILFORD,2850.0,N,2007 Polling Places,"Match 01 - state, premises, postcode",-32.9668,149.856,POINT (149.856 -32.9668),424
NSW,Jenolan Caves,Jenolan Caves House,Number 2 Car Park,JENOLAN CAVES,2790.0,N,google geocode,ROOFTOP,-33.8188351,150.02258899999998,POINT (150.022589 -33.8188351),419
NSW,Kandos,Kandos High School,Fleming St,KANDOS,2848.0,N,2007 Polling Places,"Match 01 - state, premises, postcode",-32.856,149.975,POINT (149.975 -32.856),425
NSW,Kelso,Kelso Public School,Gilmour St,KELSO,2795.0,N,2007 Polling Places,"Match 01 - state, premises, postcode",-33.4176,149.60399999999996,POINT (149.604 -33.4176),426
NSW,Kirkconnell,Kirkconnell Public School,Great Western Hwy,KIRKCONNELL,2795.0,N,google geocode,GEOMETRIC_CENTER,-33.4373267,149.8528081,POINT (149.8528081 -33.4373267),480
NSW,Lithgow,Lithgow Primary School,163 Mort Street,LITHGOW,2790.0,A,2007 Polling Places,"Match 01 - state, premises, postcode",-33.4818,150.16,POINT (150.16 -33.4818),427
NSW,Lithgow Hospital,Lithgow District Hospital,Col Drew Dr,LITHGOW,2790.0,A,2007 Polling Places,"Match 01 - state, premises, postcode",-33.4998,150.127,POINT (150.127 -33.4998),400
NSW,Littleton,La Salle Academy,Rabaul St,LITHGOW,2790.0,A,2007 Polling Places,"Match 01 - state, premises, postcode",-33.4955,150.13299999999995,POINT (150.133 -33.4955),472
NSW,Lucknow,Lucknow School Community Hall,Newman St,LUCKNOW,2800.0,N,2007 Polling Places,"Match 01 - state, premises, postcode",-33.3445,149.161,POINT (149.161 -33.3445),429
NSW,Lyndhurst,Lyndhurst Public School,Marsden St,LYNDHURST,2797.0,N,2007 Polling Places,"Match 01 - state, premises, postcode",-33.6733,149.045,POINT (149.045 -33.6733),431
NSW,Mandurama,Mandurama Public School,Loquat St,MANDURAMA,2792.0,A,2007 Polling Places,"Match 01 - state, premises, postcode",-33.6518,149.07,POINT (149.07 -33.6518),432
NSW,Manildra,Manildra Public School,Molong Rd,MANILDRA,2865.0,N,2007 Polling Places,"Match 01 - state, premises, postcode",-33.1833,148.69,POINT (148.69 -33.1833),433
NSW,March,Old School Building,March Rd,MARCH,2800.0,N,google geocode,GEOMETRIC_CENTER,52.51636569999999,0.0808183,POINT (0.0808183 52.51636569999999),2901
NSW,Meadow Flat,Meadow Flat Public School,Great Western Hwy,MEADOW FLAT,2795.0,N,2007 Polling Places,"Match 01 - state, premises, postcode",-33.4349,149.924,POINT (149.924 -33.4349),434
NSW,Millthorpe,Millthorpe Public School,Park St,MILLTHORPE,2798.0,A,2007 Polling Places,"Match 01 - state, premises, postcode",-33.4489,149.186,POINT (149.186 -33.4489),435
NSW,Mitchell Campus,Charles Sturt University Mitchell,Panorama Ave,BATHURST,2795.0,A,2007 Polling Places,"Match 05 - state, polling_place, postcode",-35.0578,147.362,POINT (147.362 -35.0578),2368
NSW,Molong,Anglican Parish Hall,Edward St,MOLONG,2866.0,N,2007 Polling Places,"Match 05 - state, polling_place, postcode",-33.0946,148.866,POINT (148.866 -33.0946),436
NSW,Morts Estate,L. Hine's Residence,5 Guy Street,LITHGOW,2790.0,N,google geocode,ROOFTOP,-33.4713187,150.1664031,POINT (150.1664031 -33.4713187),427
NSW,Mullion Creek,Mullion Creek Public School,Long Point Rd,MULLION CREEK,2800.0,N,2007 Polling Places,"Match 01 - state, premises, postcode",-33.1391,149.121,POINT (149.121 -33.1391),441
NSW,Mumbil,Mumbil Public School,Apsley Cres,MUMBIL,2820.0,N,2007 Polling Places,"Match 01 - state, premises, postcode",-32.7219,149.05100000000004,POINT (149.051 -32.7219),442
NSW,Nashdale,Nashdale Public School,Nancarrow La,NASHDALE,2800.0,N,2007 Polling Places,"Match 01 - state, premises, postcode",-33.2946,149.017,POINT (149.017 -33.2946),443
NSW,Neurea,Neurea Hall,Off Mitchell Hwy,NEUREA,2820.0,N,google geocode,GEOMETRIC_CENTER,-32.6859212,148.94563480000002,POINT (148.9456348 -32.6859212),442
NSW,Neville,Neville Public School,Crouch St,NEVILLE,2799.0,N,2007 Polling Places,"Match 01 - state, premises, postcode",-33.709,149.217,POINT (149.217 -33.709),444
NSW,Newbridge,Newbridge Public School,Trunkey St,NEWBRIDGE,2795.0,N,2007 Polling Places,"Match 01 - state, premises, postcode",-33.5812,149.366,POINT (149.366 -33.5812),385
NSW,O'Connell,O'Connell Public School,15 Blacks Mills Lane,O'CONNELL,2795.0,N,2007 Polling Places,"Match 01 - state, premises, postcode",-33.5245,149.72,POINT (149.72 -33.5245),445
NSW,Oakey Park,Zig Zag Public School,Victoria Ave,LITHGOW,2790.0,A,2007 Polling Places,"Match 01 - state, premises, postcode",-33.466,150.183,POINT (150.183 -33.466),446
NSW,Oberon,Oberon High School,Ross St,OBERON,2787.0,A,2007 Polling Places,"Match 01 - state, premises, postcode",-33.7021,149.859,POINT (149.859 -33.7021),447
NSW,Orange,Scout Hall,94 Kite St,ORANGE,2800.0,A,2007 Polling Places,"Match 05 - state, polling_place, postcode",-33.2861,149.096,POINT (149.096 -33.2861),448
NSW,Orange East,St Barnabas Parish Hall,381 Summer St,ORANGE,2800.0,A,2007 Polling Places,"Match 01 - state, premises, postcode",-33.285,149.108,POINT (149.108 -33.285),449
NSW,Orange Hospital,Orange Base Hospital,Sale St,ORANGE,2800.0,A,2007 Polling Places,"Match 01 - state, premises, postcode",-33.2829,149.096,POINT (149.096 -33.2829),448
NSW,Orange North,Holy Trinity Hall,Anson St,ORANGE,2800.0,N,2007 Polling Places,"Match 05 - state, polling_place, postcode",-33.2815,149.102,POINT (149.102 -33.2815),448
NSW,Orange South,Anson Street Public School,92 Anson St,ORANGE,2800.0,A,2007 Polling Places,"Match 01 - state, premises, postcode",-33.2931,149.097,POINT (149.097 -33.2931),454
NSW,Orange West,Orange High School,Woodward St,ORANGE,2800.0,N,2007 Polling Places,"Match 01 - state, premises, postcode",-33.2809,149.086,POINT (149.086 -33.2809),455
NSW,Peel,Old School House,West Street,PEEL,2795.0,N,2007 Polling Places,"Match 01 - state, premises, postcode",-33.3094,149.635,POINT (149.635 -33.3094),426
NSW,Perthville,Perthville Public School,Rockley St,PERTHVILLE,2795.0,N,2007 Polling Places,"Match 01 - state, premises, postcode",-33.491,149.547,POINT (149.547 -33.491),457
NSW,Portland,Portland Central School,Villiers St,PORTLAND,2847.0,N,2007 Polling Places,"Match 01 - state, premises, postcode",-33.3546,149.981,POINT (149.981 -33.3546),458
NSW,Raglan,Raglan Public School,Nelson St,RAGLAN,2795.0,A,2007 Polling Places,"Match 01 - state, premises, postcode",-33.4283,149.648,POINT (149.648 -33.4283),459
NSW,Rockley,Rockley Public School,Hill St,ROCKLEY,2795.0,N,2007 Polling Places,"Match 01 - state, premises, postcode",-33.4143,149.562,POINT (149.562 -33.4143),393
NSW,Rydal,Rydal Mount,Bathurst St,RYDAL,2790.0,N,2007 Polling Places,"Match 05 - state, polling_place, postcode",-33.4824,150.035,POINT (150.035 -33.4824),474
NSW,Rylstone,Rylstone Memorial Hall,Louee St,RYLSTONE,2849.0,A,2007 Polling Places,"Match 01 - state, premises, postcode",-32.7984,149.971,POINT (149.971 -32.7984),461
NSW,Sofala,Sofala Hall,Denison St,SOFALA,2795.0,N,2007 Polling Places,"Match 01 - state, premises, postcode",-33.0805,149.691,POINT (149.691 -33.0805),475
NSW,Spring Hill,Spring Hill Public School,Seaton St,SPRING HILL,2800.0,N,2007 Polling Places,"Match 01 - state, premises, postcode",-33.3997,149.151,POINT (149.151 -33.3997),467
NSW,Spring Terrace,Spring Terrace Public School,Forest Rd,SPRING TERRACE,2798.0,N,2007 Polling Places,"Match 01 - state, premises, postcode",-33.4452,149.186,POINT (149.186 -33.4452),435
NSW,Stuart Town,Stuart Town Public School,Orange Rd,STUART TOWN,2820.0,N,2007 Polling Places,"Match 01 - state, premises, postcode",-32.8023,149.069,POINT (149.069 -32.8023),469
NSW,Tarana,Uniting Church Hall,Bathurst Rd,TARANA,2787.0,N,google geocode,ROOFTOP,-33.5256483,149.90891100000002,POINT (149.908911 -33.5256483),434
NSW,The Lagoon,The Lagoon Public School,71 Young St,THE LAGOON,2795.0,N,2007 Polling Places,"Match 01 - state, premises, postcode",-33.5414,149.602,POINT (149.602 -33.5414),457
NSW,Trunkey Creek,Trunkey Creek Public School,Bathurst Rd,TRUNKEY CREEK,2795.0,N,google geocode,GEOMETRIC_CENTER,-33.8134107,149.3253987,POINT (149.3253987 -33.8134107),471
NSW,Tweed Mills,Christian Life Centre,50 Musket Pde,LITHGOW,2790.0,N,2007 Polling Places,"Match 05 - state, polling_place, postcode",-33.488,150.135,POINT (150.135 -33.488),472
NSW,Vale Of Clwydd,Vale Of Clwydd Community Hall,Mort St,LITHGOW,2790.0,A,2007 Polling Places,"Match 01 - state, premises, postcode",-33.4821,150.175,POINT (150.175 -33.4821),427
NSW,Wallerawang,Wallerawang Public School,Barton Ave,WALLERAWANG,2845.0,A,2007 Polling Places,"Match 01 - state, premises, postcode",-33.4196,150.071,POINT (150.071 -33.4196),474
NSW,Wattle Flat,Wattle Flat Public School,Sofala Rd,WATTLE FLAT,2795.0,N,2007 Polling Places,"Match 01 - state, premises, postcode",-33.1422,149.692,POINT (149.692 -33.1422),475
NSW,Yeoval,Yeoval Central School,Obley St,YEOVAL,2868.0,N,2007 Polling Places,"Match 01 - state, premises, postcode",-32.754,148.648,POINT (148.648 -32.754),479
NSW,Ambleside,Lakelands Community Hall,Ambleside Circuit,LAKELANDS,2282.0,A,2013 Polling Places,"Match 03 - state, premises, postcode",-32.9657,151.649,POINT (151.649 -32.9657),2556
NSW,Arcadia Vale,Arcadia Vale Public School,Glade St,ARCADIA VALE,2283.0,N,2007 Polling Places,"Match 01 - state, premises, postcode",-33.0608,151.58,POINT (151.58 -33.0608),1253
NSW,Argenton,Argenton Community Hall,13-15 Elizabeth St,ARGENTON,2284.0,F,2010 Polling Places,"Match 02 - state, premises, postcode",-32.9357,151.631,POINT (151.631 -32.9357),1254
NSW,Awaba,Awaba Community Hall,33 Brisbane St,AWABA,2283.0,A,2007 Polling Places,"Match 05 - state, polling_place, postcode",-33.0111,151.53799999999995,POINT (151.538 -33.0111),1257
NSW,Barnsley,Barnsley Public School,Cliffbrook Rd,BARNSLEY,2301.0,F,2007 Polling Places,"Match 01 - state, premises, postcode",-32.9324,151.594,POINT (151.594 -32.9324),1255
NSW,Blackalls,Blackalls Public School,Charles St,BLACKALLS PARK,2283.0,A,2007 Polling Places,"Match 01 - state, premises, postcode",-32.9983,151.577,POINT (151.577 -32.9983),1258
NSW,Bolton Point,Bolton Point Community Hall,Middlepoint Road,BOLTON POINT,2283.0,A,2007 Polling Places,"Match 01 - state, premises, postcode",-33.0031,151.611,POINT (151.611 -33.0031),1283
NSW,Bonnells Bay,Bonnells Bay Primary School,Morisset Park Road,BONNELLS BAY,2264.0,A,2007 Polling Places,"Match 01 - state, premises, postcode",-33.1136,151.516,POINT (151.516 -33.1136),1260
NSW,Booragul,Booragul Primary School,Aspinall St,BOORAGUL,2284.0,A,2007 Polling Places,"Match 01 - state, premises, postcode",-32.9744,151.611,POINT (151.611 -32.9744),1261
NSW,Booragul Homes,C A Brown Village,Toronto Rd,BOORAGUL,2284.0,F,google geocode,GEOMETRIC_CENTER,-32.974043300000005,151.606346,POINT (151.606346 -32.97404330000001),1261
NSW,Cardiff,Cardiff Public School,Macquarie Rd,CARDIFF,2285.0,N,2007 Polling Places,"Match 01 - state, premises, postcode",-32.9465,151.658,POINT (151.658 -32.9465),2516
NSW,Cardiff East,John Young Community Hall,24 Thomas St,CARDIFF,2285.0,A,2007 Polling Places,"Match 01 - state, premises, postcode",-32.9427,151.662,POINT (151.662 -32.9427),2516
NSW,Cardiff Heights,Baptist Church Hall,35 Main Rd,CARDIFF HEIGHTS,2285.0,N,2007 Polling Places,"Match 05 - state, polling_place, postcode",-32.9364,151.674,POINT (151.674 -32.9364),2518
NSW,Cardiff North,Cardiff North Public School,Wansbeck Valley Rd,CARDIFF,2285.0,N,2007 Polling Places,"Match 01 - state, premises, postcode",-32.9372,151.665,POINT (151.665 -32.9372),2518
NSW,Cardiff South,Cardiff South Public School,Lake Ave,CARDIFF SOUTH,2285.0,N,2007 Polling Places,"Match 01 - state, premises, postcode",-32.9526,151.666,POINT (151.666 -32.9526),2519
NSW,Carey Bay,Scout Hall,74 Excelsior Pde,CAREY BAY,2283.0,A,2007 Polling Places,"Match 01 - state, premises, postcode",-33.0269,151.607,POINT (151.607 -33.0269),1270
NSW,Coal Point,Coal Point Public School,Coal Point Rd,COAL POINT,2283.0,N,2007 Polling Places,"Match 01 - state, premises, postcode",-33.0416,151.61,POINT (151.61 -33.0416),1270
NSW,Cooranbong,Cooranbong Public School,Government Rd,COORANBONG,2265.0,N,2007 Polling Places,"Match 01 - state, premises, postcode",-33.0793,151.44299999999996,POINT (151.443 -33.0793),1271
NSW,Dora Creek,Dora Creek Hall,Doree Place,DORA CREEK,2264.0,F,2007 Polling Places,"Match 01 - state, premises, postcode",-33.0852,151.503,POINT (151.503 -33.0852),1275
NSW,Edgeworth,Edgeworth Memorial Neighbourhood Centre,1 Minmi Rd,EDGEWORTH,2285.0,F,2007 Polling Places,"Match 01 - state, premises, postcode",-32.9232,151.622,POINT (151.622 -32.9232),1277
NSW,Elermore Vale,Elermore Vale Public School,Jubilee Rd,ELERMORE VALE,2287.0,N,2007 Polling Places,"Match 01 - state, premises, postcode",-32.9149,151.666,POINT (151.666 -32.9149),1280
NSW,Fassifern,Fassifern Primary School,Fassifern St,FASSIFERN,2283.0,N,2007 Polling Places,"Match 01 - state, premises, postcode",-32.9844,151.583,POINT (151.583 -32.9844),1282
NSW,Fennell Bay,Fennell Bay Primary School,Bay Rd,FENNELL BAY,2283.0,A,2007 Polling Places,"Match 01 - state, premises, postcode",-32.9923,151.602,POINT (151.602 -32.9923),1283
NSW,Garden Suburb,Garden Suburb Community Hall,2a Prospect Rd,GARDEN SUBURB,2289.0,N,2007 Polling Places,"Match 01 - state, premises, postcode",-32.9476,151.683,POINT (151.683 -32.9476),2531
NSW,Glendale,John Lavery Hall,Oakland Street,GLENDALE,2285.0,A,2007 Polling Places,"Match 05 - state, polling_place, postcode",-32.9277,151.642,POINT (151.642 -32.9277),1284
NSW,Glendale East,Glendale East Primary School,Clarence St,GLENDALE,2285.0,A,2007 Polling Places,"Match 01 - state, premises, postcode",-32.9278,151.653,POINT (151.653 -32.9278),1284
NSW,Hawkins Village,Hawkins Masonic Retirement Village,Northville Dr,EDGEWORTH,2285.0,F,2007 Polling Places,"Match 01 - state, premises, postcode",-32.9259,151.60399999999996,POINT (151.604 -32.9259),1278
NSW,Hillsborough,Hillsborough Public School,83 Waratah Ave,CHARLESTOWN,2290.0,N,2013 Polling Places,"Match 03 - state, premises, postcode",-32.9595,151.681,POINT (151.681 -32.9595),2534
NSW,Kilaben Bay,Kilaben Bay Community Hall,Kilaben Rd,KILABEN BAY,2283.0,N,2007 Polling Places,"Match 01 - state, premises, postcode",-33.0252,151.594,POINT (151.594 -33.0252),1289
NSW,Killingworth,Killingworth Rural Fire Brigade,3 Park St,KILLINGWORTH,2301.0,A,google geocode,ROOFTOP,-32.9367144,151.55905159999998,POINT (151.5590516 -32.9367144),1318
NSW,Martinsville,Martinsville Fire Station,Martinsville Rd,MARTINSVILLE,2265.0,F,2007 Polling Places,"Match 01 - state, premises, postcode",-33.0594,151.409,POINT (151.409 -33.0594),1271
NSW,Maryland,Maryland Public School,John T Bell Dr,MARYLAND,2287.0,A,2007 Polling Places,"Match 01 - state, premises, postcode",-32.882,151.659,POINT (151.659 -32.882),1863
NSW,Morisset,Morisset Primary School,Terrigal St,MORISSET,2264.0,A,2007 Polling Places,"Match 01 - state, premises, postcode",-33.1029,151.489,POINT (151.489 -33.1029),1294
NSW,Mount Hutton,Mount Hutton Primary School,12 Dunkley Pde,MOUNT HUTTON,2290.0,A,2007 Polling Places,"Match 01 - state, premises, postcode",-32.9766,151.66899999999995,POINT (151.669 -32.9766),2541
NSW,New Lambton Heights,New Lambton Heights Infants School,176 Lookout Rd,NEW LAMBTON HEIGHTS,2305.0,N,2007 Polling Places,"Match 01 - state, premises, postcode",-32.935,151.688,POINT (151.688 -32.935),1845
NSW,Pittown,St Patricks Primary School,Neilson St,WALLSEND,2287.0,A,2007 Polling Places,"Match 01 - state, premises, postcode",-32.9001,151.664,POINT (151.664 -32.9001),1877
NSW,Plattsburg,Wallsend High School,Macquarie St,WALLSEND,2287.0,A,2007 Polling Places,"Match 01 - state, premises, postcode",-32.8944,151.667,POINT (151.667 -32.8944),1878
NSW,Rathmines,Rathmines Public School,Secret Corner Rd,RATHMINES,2283.0,A,2007 Polling Places,"Match 01 - state, premises, postcode",-33.0429,151.586,POINT (151.586 -33.0429),1304
NSW,Speers Point,Lake Macquarie City Council Administration Centre,126-138 Main Rd,SPEERS POINT,2284.0,F,2007 Polling Places,"Match 01 - state, premises, postcode",-32.9601,151.624,POINT (151.624 -32.9601),2547
NSW,Sunshine,South Lake Macquarie Amateur Sailing Club,Sunshine Parade,SUNSHINE,2264.0,F,2010 Polling Places,"Match 02 - state, premises, postcode",-33.1119,151.565,POINT (151.565 -33.1119),1295
NSW,Teralba,Teralba Primary School,York St,TERALBA,2284.0,N,2007 Polling Places,"Match 01 - state, premises, postcode",-32.9627,151.606,POINT (151.606 -32.9627),1314
NSW,Toronto,Toronto Multi-Purpose Centre,9 Thorne Street,TORONTO,2283.0,F,2007 Polling Places,"Match 01 - state, premises, postcode",-33.0115,151.592,POINT (151.592 -33.0115),1315
NSW,Toronto North,Toronto Public School,Carey St,TORONTO,2283.0,A,2007 Polling Places,"Match 01 - state, premises, postcode",-33.0073,151.595,POINT (151.595 -33.0073),1315
NSW,Toronto West,Biriban Public School,Beckley St,TORONTO,2283.0,A,google geocode,GEOMETRIC_CENTER,-33.0074342,151.5740007,POINT (151.5740007 -33.0074342),1257
NSW,Wallsend,Uniting Church Hall,19 Metcalfe St,WALLSEND,2287.0,F,2007 Polling Places,"Match 01 - state, premises, postcode",-32.905,151.67,POINT (151.67 -32.905),1887
NSW,Wallsend Hospital,"Elsie Grahame Centre, Wallsend Health Campus",Longworth Ave,WALLSEND,2287.0,F,google geocode,GEOMETRIC_CENTER,-32.9004894,151.6771203,POINT (151.6771203 -32.9004894),1880
NSW,Wallsend South,Wallsend South Public School,Smith Rd,ELERMORE VALE,2287.0,A,2007 Polling Places,"Match 01 - state, premises, postcode",-32.9208,151.673,POINT (151.673 -32.9208),1888
NSW,Wangi Wangi,Wangi Wangi Public School,Dobell Dr,WANGI WANGI,2267.0,F,2007 Polling Places,"Match 01 - state, premises, postcode",-33.0724,151.583,POINT (151.583 -33.0724),1317
NSW,Warners Bay,Warners Bay High School,King St,WARNERS BAY,2282.0,A,2007 Polling Places,"Match 01 - state, premises, postcode",-32.9684,151.661,POINT (151.661 -32.9684),2554
NSW,Warners Bay Central,Warners Bay Community Hall,Lake St,WARNERS BAY,2282.0,A,2007 Polling Places,"Match 05 - state, polling_place, postcode",-32.9798,151.648,POINT (151.648 -32.9798),2555
NSW,West Wallsend,West Wallsend High School,2 Appletree Rd,WEST WALLSEND,2286.0,N,2007 Polling Places,"Match 01 - state, premises, postcode",-32.9098,151.58100000000005,POINT (151.581 -32.9098),1318
NSW,Whitegates,Silveridge Community Hall,Iranda Grove,WALLSEND,2287.0,F,google geocode,GEOMETRIC_CENTER,-32.9072126,151.6834255,POINT (151.6834255 -32.9072126),1880
NSW,Woodrising,Woodrising Youth Centre,Hayden Brook Rd,WOODRISING,2284.0,F,2007 Polling Places,"Match 01 - state, premises, postcode",-32.9819,151.606,POINT (151.606 -32.9819),1320
NSW,Wyee,Wyee Sports & Recreation Centre,114 Wyee Rd,WYEE,2259.0,F,2007 Polling Places,"Match 05 - state, polling_place, postcode",-33.1754,151.483,POINT (151.483 -33.1754),1321
NSW,Wyee Point,Mecca Village,71 Ruttleys Rd,WYEE,2259.0,N,2007 Polling Places,"Match 01 - state, premises, postcode",-33.1504,151.524,POINT (151.524 -33.1504),1322
NSW,Bennett Road,Bennett Road Public School,Bennett Rd,COLYTON,2760.0,A,2007 Polling Places,"Match 01 - state, premises, postcode",-33.7838,150.791,POINT (150.791 -33.7838),1378
NSW,Bidwill,Bidwill Public School,Bunya Rd,BIDWILL,2770.0,N,2007 Polling Places,"Match 01 - state, premises, postcode",-33.7339,150.826,POINT (150.826 -33.7339),482
NSW,Blackett,Blackett Public School,Boldrewood Rd,BLACKETT,2770.0,N,2007 Polling Places,"Match 01 - state, premises, postcode",-33.7395,150.816,POINT (150.816 -33.7395),483
NSW,Blacktown West,Blacktown West Public School,Kildare Rd,BLACKTOWN,2148.0,N,2007 Polling Places,"Match 01 - state, premises, postcode",-33.7705,150.893,POINT (150.893 -33.7705),486
NSW,Clairgate,Clairgate Public School,Colorado Dr,ST CLAIR,2759.0,A,2007 Polling Places,"Match 01 - state, premises, postcode",-33.7959,150.80100000000004,POINT (150.801 -33.7959),1682
NSW,Dharruk,Dawson Public School,Stuart Rd,DHARRUK,2770.0,A,2007 Polling Places,"Match 01 - state, premises, postcode",-33.7475,150.817,POINT (150.817 -33.7475),489
NSW,Doonside,Doonside Public School,Kildare Rd,DOONSIDE,2767.0,N,2007 Polling Places,"Match 01 - state, premises, postcode",-33.765,150.872,POINT (150.872 -33.765),491
NSW,Doonside North,Doonside High School,Power St,DOONSIDE,2767.0,A,2007 Polling Places,"Match 01 - state, premises, postcode",-33.7563,150.875,POINT (150.875 -33.7563),492
NSW,Eastern Creek,Eastern Creek Public School,Rooty Hill Rd S,EASTERN CREEK,2766.0,A,2007 Polling Places,"Match 01 - state, premises, postcode",-33.7867,150.85299999999995,POINT (150.853 -33.7867),510
NSW,Emerton,Emerton Public School,Hindemith Ave,EMERTON,2770.0,A,2007 Polling Places,"Match 01 - state, premises, postcode",-33.7462,150.806,POINT (150.806 -33.7462),516
NSW,Erskine Park,James Erskine Public School,Peppertree Dr,ERSKINE PARK,2759.0,A,2007 Polling Places,"Match 01 - state, premises, postcode",-33.8057,150.803,POINT (150.803 -33.8057),1655
NSW,Glendenning,Glendenning Public School,Armitage Dr,GLENDENNING,2761.0,A,2007 Polling Places,"Match 01 - state, premises, postcode",-33.7425,150.852,POINT (150.852 -33.7425),493
NSW,Hassall Grove,Hassall Grove Public School,Buckwell Dr,HASSALL GROVE,2761.0,A,2007 Polling Places,"Match 01 - state, premises, postcode",-33.7361,150.84,POINT (150.84 -33.7361),494
NSW,Hebersham,Hebersham Public School,Andover Cres,HEBERSHAM,2770.0,A,2007 Polling Places,"Match 01 - state, premises, postcode",-33.7477,150.826,POINT (150.826 -33.7477),495
NSW,Lethbridge Park,Lethbridge Park Public School,Copeland Rd,LETHBRIDGE PARK,2770.0,N,2007 Polling Places,"Match 01 - state, premises, postcode",-33.7423,150.803,POINT (150.803 -33.7423),496
NSW,Madang,Madang Avenue Public School,Mimika Ave,WHALAN,2770.0,A,2007 Polling Places,"Match 01 - state, premises, postcode",-33.7602,150.805,POINT (150.805 -33.7602),504
NSW,Minchinbury,Minchinbury Public School,McFarlane Dr,MINCHINBURY,2770.0,A,2007 Polling Places,"Match 01 - state, premises, postcode",-33.7875,150.83100000000005,POINT (150.831 -33.7875),1678
NSW,Mount Druitt Hospital,Mount Druitt Hospital,Railway St,MOUNT DRUITT,2770.0,A,2007 Polling Places,"Match 01 - state, premises, postcode",-33.7636,150.83,POINT (150.83 -33.7636),502
NSW,Mount Druitt North,Mount Druitt Public School,Belmore Ave,MOUNT DRUITT,2770.0,N,2007 Polling Places,"Match 01 - state, premises, postcode",-33.7639,150.812,POINT (150.812 -33.7639),504
NSW,Mount Druitt South,Colyton Public School,Nelson St,MOUNT DRUITT,2770.0,A,2007 Polling Places,"Match 01 - state, premises, postcode",-33.7749,150.814,POINT (150.814 -33.7749),505
NSW,O.L.C. Home,Our Lady Of Consolation Home,Evans Rd,ROOTY HILL,2766.0,A,google geocode,GEOMETRIC_CENTER,-33.781354,150.8473344,POINT (150.8473344 -33.781354),510
NSW,Oxley Park,Oxley Park Public School,Adelaide St,OXLEY PARK,2760.0,A,2007 Polling Places,"Match 01 - state, premises, postcode",-33.7724,150.78799999999995,POINT (150.788 -33.7724),1399
NSW,Plumpton,Plumpton Public School,Bottles Rd,PLUMPTON,2761.0,A,2007 Polling Places,"Match 01 - state, premises, postcode",-33.7491,150.838,POINT (150.838 -33.7491),506
NSW,Rooty Hill North,Rooty Hill Public School,Rooty Hill Rd N,ROOTY HILL,2766.0,A,2007 Polling Places,"Match 01 - state, premises, postcode",-33.769,150.841,POINT (150.841 -33.769),509
NSW,Rooty Hill South,Rooty Hill Senior Citizens Hall,Rooty Hill Rd S,ROOTY HILL,2766.0,A,2007 Polling Places,"Match 05 - state, polling_place, postcode",-33.77,150.843,POINT (150.843 -33.77),509
NSW,St Marys,St Marys Public School,Princess Mary St,ST MARYS,2760.0,N,2007 Polling Places,"Match 01 - state, premises, postcode",-33.7693,150.77,POINT (150.77 -33.7693),1405
NSW,St Marys North,St Marys North Public School,Debrincat Ave,ST MARYS,2760.0,N,2007 Polling Places,"Match 01 - state, premises, postcode",-33.7557,150.782,POINT (150.782 -33.7557),1406
NSW,St Marys South,St Marys South Public School,Monfarville St,ST MARYS,2760.0,N,2007 Polling Places,"Match 01 - state, premises, postcode",-33.7795,150.776,POINT (150.776 -33.7795),1407
NSW,Shalvey,Shalvey Public School,Laver St,SHALVEY,2770.0,A,2007 Polling Places,"Match 01 - state, premises, postcode",-33.7278,150.80700000000004,POINT (150.807 -33.7278),512
NSW,Tregear,Tregear Public School,Ellsworth Dr,TREGEAR,2770.0,A,2007 Polling Places,"Match 01 - state, premises, postcode",-33.7517,150.798,POINT (150.798 -33.7517),515
NSW,Walters Road,Walters Road Public School,Walters Rd,BLACKTOWN,2148.0,N,2007 Polling Places,"Match 01 - state, premises, postcode",-33.7841,150.891,POINT (150.891 -33.7841),481
NSW,Whalan,Whalan Public School,Karangi Rd,WHALAN,2770.0,A,2007 Polling Places,"Match 01 - state, premises, postcode",-33.7526,150.81,POINT (150.81 -33.7526),516
NSW,Willmot,Willmot Public School,Discovery Ave,WILLMOT,2770.0,A,2007 Polling Places,"Match 01 - state, premises, postcode",-33.7256,150.79399999999995,POINT (150.794 -33.7256),517
NSW,Burraneer Bay,Burraneer Bay Public School,161 Burraneer Bay Rd,CARINGBAH,2229.0,N,google geocode,RANGE_INTERPOLATED,-34.0517803,151.1323448,POINT (151.1323448 -34.0517803),522
NSW,Caringbah,Caringbah Public School,Port Hacking Rd,CARINGBAH,2229.0,N,2007 Polling Places,"Match 01 - state, premises, postcode",-34.0537,151.123,POINT (151.123 -34.0537),525
NSW,Caringbah Central,St Philips Anglican Church Hall,Port Hacking Rd,CARINGBAH,2229.0,A,2007 Polling Places,"Match 05 - state, polling_place, postcode",-34.0327,151.111,POINT (151.111 -34.0327),549
NSW,Caringbah North,Caringbah North Public School,Cawarra Rd,CARINGBAH,2229.0,N,2007 Polling Places,"Match 05 - state, polling_place, postcode",-34.0375,151.12,POINT (151.12 -34.0375),524
NSW,Caringbah West,Laguna Street Public School,Laguna St,CARINGBAH,2229.0,N,2007 Polling Places,"Match 01 - state, premises, postcode",-34.0459,151.113,POINT (151.113 -34.0459),526
NSW,Cronulla,Cronulla Public School,20 Burraneer Bay Rd,CRONULLA,2230.0,N,2007 Polling Places,"Match 01 - state, premises, postcode",-34.0538,151.148,POINT (151.148 -34.0538),530
NSW,Cronulla Central,Thornton Hall,Cnr Nicholson Pde & Giddings Ave,CRONULLA,2230.0,N,2007 Polling Places,"Match 05 - state, polling_place, postcode",-34.0579,151.153,POINT (151.153 -34.0579),531
NSW,Cronulla North,Uniting Church Hall,Cnr Burke Rd & Gosport St,CRONULLA,2230.0,N,2007 Polling Places,"Match 01 - state, premises, postcode",-34.0485,151.151,POINT (151.151 -34.0485),532
NSW,Cronulla South,Cronulla South Public School,Ewos Pde,CRONULLA,2230.0,N,2007 Polling Places,"Match 01 - state, premises, postcode",-34.0653,151.154,POINT (151.154 -34.0653),533
NSW,Dolans Bay,Port Hacking Scout Hall,Turriell Bay Rd,LILLI PILLI,2229.0,N,2007 Polling Places,"Match 05 - state, polling_place, postcode",-34.0601,151.13,POINT (151.13 -34.0601),525
NSW,Grays Point,Grays Point Community Hall,Grays Point Rd,GRAYS POINT,2232.0,N,2007 Polling Places,"Match 05 - state, polling_place, postcode",-34.0575,151.08100000000005,POINT (151.081 -34.0575),1150
NSW,Gymea,Gymea Catholic Church Hall,Gymea Bay Rd,GYMEA,2227.0,N,2007 Polling Places,"Match 01 - state, premises, postcode",-34.0371,151.084,POINT (151.084 -34.0371),537
NSW,Gymea North,Gymea North Public School,Ruby Rd,GYMEA,2227.0,A,2007 Polling Places,"Match 01 - state, premises, postcode",-34.0265,151.088,POINT (151.088 -34.0265),539
NSW,Gymea South,Gymea Bay Public School,Gymea Bay Rd,GYMEA BAY,2227.0,N,2007 Polling Places,"Match 01 - state, premises, postcode",-34.0468,151.083,POINT (151.083 -34.0468),538
NSW,Kareela,Kareela Public School,Freya St,KAREELA,2232.0,A,2007 Polling Places,"Match 01 - state, premises, postcode",-34.0131,151.083,POINT (151.083 -34.0131),1158
NSW,Kirrawee,Kirrawee Public School,Clements Pde,KIRRAWEE,2232.0,N,2007 Polling Places,"Match 01 - state, premises, postcode",-34.0331,151.078,POINT (151.078 -34.0331),541
NSW,Kirrawee South,Kirrawee High School,Hunter St,KIRRAWEE,2232.0,A,2007 Polling Places,"Match 01 - state, premises, postcode",-34.0436,151.075,POINT (151.075 -34.0436),1160
NSW,Kurnell,Kurnell Public School,Dampier St,KURNELL,2231.0,F,2007 Polling Places,"Match 01 - state, premises, postcode",-34.0107,151.204,POINT (151.204 -34.0107),544
NSW,Lilli Pilli,Lilli Pilli Public School,30 Lilli Pilli Point Rd,LILLI PILLI,2229.0,N,2007 Polling Places,"Match 01 - state, premises, postcode",-34.0665,151.118,POINT (151.118 -34.0665),545
NSW,Miranda,Port Hacking High School,Kingsway,MIRANDA,2228.0,N,2007 Polling Places,"Match 01 - state, premises, postcode",-34.0332,151.09799999999996,POINT (151.098 -34.0332),546
NSW,Miranda Central,Miranda Community Centre,Karimbla Rd,MIRANDA,2228.0,A,2007 Polling Places,"Match 01 - state, premises, postcode",-34.0371,151.102,POINT (151.102 -34.0371),547
NSW,Miranda North,Miranda North Public School,The Boulevarde,MIRANDA,2228.0,N,2007 Polling Places,"Match 01 - state, premises, postcode",-34.0314,151.113,POINT (151.113 -34.0314),549
NSW,Sutherland East,Presbyterian Church Hall,Cnr Flora & Glencoe Sts,SUTHERLAND,2232.0,A,2007 Polling Places,"Match 01 - state, premises, postcode",-34.0323,151.064,POINT (151.064 -34.0323),1171
NSW,Sutherland Hospital,Caringbah Community Clinic,126 Kareena Rd,CARINGBAH,2229.0,A,2007 Polling Places,"Match 05 - state, polling_place, postcode",-34.0366,151.115,POINT (151.115 -34.0366),549
NSW,Sutherland North,Sutherland North Public School,Auburn St,SUTHERLAND,2232.0,N,2007 Polling Places,"Match 01 - state, premises, postcode",-34.027,151.067,POINT (151.067 -34.027),1172
NSW,Sylvania,Sylvania Public School,Princes Hwy,SYLVANIA,2224.0,N,2007 Polling Places,"Match 01 - state, premises, postcode",-34.0084,151.112,POINT (151.112 -34.0084),559
NSW,Sylvania Central,Sylvania Heights Community Clinic,29 Sylvania Rd,SYLVANIA,2224.0,A,google geocode,RANGE_INTERPOLATED,-34.0185824,151.0949319,POINT (151.0949319 -34.0185824),560
NSW,Sylvania Heights,Sylvania Heights Public School,Venetia St,SYLVANIA,2224.0,A,2007 Polling Places,"Match 01 - state, premises, postcode",-34.0124,151.09799999999996,POINT (151.098 -34.0124),560
NSW,Sylvania South,Vickery Village Community Hall,101 Port Hacking Rd,SYLVANIA,2224.0,A,2007 Polling Places,"Match 01 - state, premises, postcode",-34.0196,151.105,POINT (151.105 -34.0196),561
NSW,Sylvania Waters,Southern Districts Rugby Club,233 Belgrave Esp,SYLVANIA WATERS,2224.0,N,2007 Polling Places,"Match 05 - state, polling_place, postcode",-34.0234,151.109,POINT (151.109 -34.0234),561
NSW,Taren Point,Taren Point Public School,Woodlands Rd,TAREN POINT,2229.0,N,2007 Polling Places,"Match 01 - state, premises, postcode",-34.0189,151.122,POINT (151.122 -34.0189),562
NSW,Wanda Beach,Cronulla High School,Captain Cook Dr,CRONULLA,2230.0,A,2007 Polling Places,"Match 01 - state, premises, postcode",-34.0389,151.158,POINT (151.158 -34.0389),536
NSW,Woolooware,Woolooware Public School,Riverview Ave,WOOLOOWARE,2230.0,A,2007 Polling Places,"Match 01 - state, premises, postcode",-34.0456,151.14600000000004,POINT (151.146 -34.0456),563
NSW,Yowie Bay,Yowie Bay Public School,Cnr Wonga & Warrah Rds,YOWIE BAY,2228.0,F,2007 Polling Places,"Match 01 - state, premises, postcode",-34.0479,151.10299999999995,POINT (151.103 -34.0479),564
NSW,Aldavilla,Aldavilla Public School,Sherwood Rd,YARRAVEL,2440.0,F,2007 Polling Places,"Match 01 - state, premises, postcode",-31.0596,152.745,POINT (152.745 -31.0596),565
NSW,Argents Hill,Argents Hill School of Arts,North Arm Rd,ARGENTS HILL,2449.0,N,google geocode,GEOMETRIC_CENTER,-30.6178088,152.76617869999998,POINT (152.7661787 -30.6178088),599
NSW,Bayldon,Bayldon Primary School,Lyons Road,BAYLDON,2452.0,A,2007 Polling Places,"Match 05 - state, polling_place, postcode",-30.3637,153.08,POINT (153.08 -30.3637),566
NSW,Beechwood,Beechwood School of Arts Hall,Pappinbarra Rd,BEECHWOOD,2446.0,N,2007 Polling Places,"Match 01 - state, premises, postcode",-31.4366,152.681,POINT (152.681 -31.4366),1414
NSW,Bellbrook,Bellbrook Public School,Armidale Rd,BELLBROOK,2440.0,N,2007 Polling Places,"Match 01 - state, premises, postcode",-30.8188,152.509,POINT (152.509 -30.8188),567
NSW,Bellimbopinni,Bellimbopinni Public School,Pacific Hwy,BELLIMBOPINNI,2440.0,N,google geocode,GEOMETRIC_CENTER,-31.028929499999997,152.88349540000002,POINT (152.8834954 -31.0289295),585
NSW,Bellingen,Bellingen Anglican Church Hall,Oak St,BELLINGEN,2454.0,N,2007 Polling Places,"Match 01 - state, premises, postcode",-30.4516,152.895,POINT (152.895 -30.4516),568
NSW,Bellingen Hospital,Bellingen Hospital Boardroom,Church St,BELLINGEN,2454.0,N,2007 Polling Places,"Match 05 - state, polling_place, postcode",-30.457,152.893,POINT (152.893 -30.457),568
NSW,Boambee,Boambee Public School,Lindsays Rd,BOAMBEE,2450.0,A,2007 Polling Places,"Match 01 - state, premises, postcode",-30.3346,153.077,POINT (153.077 -30.3346),570
NSW,Bonville,Bonville Memorial Hall,East Bonville Rd,BONVILLE,2441.0,A,2007 Polling Places,"Match 01 - state, premises, postcode",-30.3803,153.033,POINT (153.033 -30.3803),571
NSW,Bostobrick,Bostobrick Bush Fire Brigade,9 Muldiva Rd,BOSTOBRICK,2453.0,N,2007 Polling Places,"Match 01 - state, premises, postcode",-30.2747,152.628,POINT (152.628 -30.2747),572
NSW,Bowraville,Bowraville Church of England Hall,Young St,BOWRAVILLE,2449.0,N,2007 Polling Places,"Match 05 - state, polling_place, postcode",-30.6436,152.85399999999996,POINT (152.854 -30.6436),573
NSW,Coffs Harbour,"Norm Jordan Pavillion, Coffs Harbour Showground",Woolgoolga Rd,COFFS HARBOUR,2450.0,A,2007 Polling Places,"Match 05 - state, polling_place, postcode",-30.2911,153.121,POINT (153.121 -30.2911),574
NSW,Coffs Harbour East,P J McNamara Hall,Park Beach Rd,PARK BEACH,2450.0,A,2010 Polling Places,"Match 06 - state, polling_place, postcode",-30.3008,153.112,POINT (153.112 -30.3008),575
NSW,Coffs Harbour Hospital,Coffs Harbour Hospital Boardroom,Boambee St,COFFS HARBOUR,2450.0,F,2007 Polling Places,"Match 05 - state, polling_place, postcode",-30.3168,153.093,POINT (153.093 -30.3168),570
NSW,Coffs Harbour Jetty,Coffs Harbour High School,Nile St,COFFS HARBOUR,2450.0,N,2007 Polling Places,"Match 01 - state, premises, postcode",-30.3055,153.136,POINT (153.136 -30.3055),577
NSW,Coffs Harbour Narranga,Narranga Public School,Robin St,COFFS HARBOUR,2450.0,N,2007 Polling Places,"Match 01 - state, premises, postcode",-30.2926,153.10399999999996,POINT (153.104 -30.2926),578
NSW,Coffs Harbour St Augustines,St Augustines Primary School,Albany St,COFFS HARBOUR,2450.0,N,2007 Polling Places,"Match 01 - state, premises, postcode",-30.3008,153.112,POINT (153.112 -30.3008),575
NSW,Coffs Harbour South,Cavanbah Hall,High St,COFFS HARBOUR,2450.0,A,2007 Polling Places,"Match 01 - state, premises, postcode",-30.2987,153.118,POINT (153.118 -30.2987),575
NSW,Coffs Harbour West,Tyalla Public School,Joyce St,COFFS HARBOUR,2450.0,N,2007 Polling Places,"Match 01 - state, premises, postcode",-30.2828,153.112,POINT (153.112 -30.2828),579
NSW,Coramba,Coramba Public School,Short St,CORAMBA,2450.0,N,2007 Polling Places,"Match 01 - state, premises, postcode",-30.2232,153.028,POINT (153.028 -30.2232),1962
NSW,Crescent Head,Crescent Head Community Hall,Baker Dr,CRESCENT HEAD,2440.0,A,2007 Polling Places,"Match 01 - state, premises, postcode",-31.1898,152.971,POINT (152.971 -31.1898),580
NSW,Deervale,Deervale Community Hall,Recreation Reserve,DEERVALE,2453.0,N,2007 Polling Places,"Match 01 - state, premises, postcode",-30.3644,152.534,POINT (152.534 -30.3644),572
NSW,Dorrigo,Dorrigo Community Hall,Hickory St,DORRIGO,2453.0,F,2007 Polling Places,"Match 01 - state, premises, postcode",-30.3392,152.71200000000005,POINT (152.712 -30.3392),582
NSW,Eungai Creek,Eungai Creek Soldiers Memorial Hall,Hall Rd,EUNGAI CREEK,2441.0,A,2007 Polling Places,"Match 01 - state, premises, postcode",-30.831,152.882,POINT (152.882 -30.831),584
NSW,Frederickton,Frederickton School of Arts Hall,Pacific Hwy,FREDERICKTON,2440.0,N,2007 Polling Places,"Match 05 - state, polling_place, postcode",-31.0327,152.88,POINT (152.88 -31.0327),585
NSW,Gladstone,Gladstone Public School,Kinchela St,GLADSTONE,2440.0,N,2007 Polling Places,"Match 05 - state, polling_place, postcode",-31.0268,152.946,POINT (152.946 -31.0268),586
NSW,Gleniffer,Gleniffer School of Arts Hall,Gleniffer Rd,GLENIFFER,2454.0,N,2007 Polling Places,"Match 01 - state, premises, postcode",-30.4047,152.881,POINT (152.881 -30.4047),587
NSW,Hat Head,Hat Head Surf Club Hall,Myrtle St,HAT HEAD,2440.0,N,2007 Polling Places,"Match 01 - state, premises, postcode",-31.0547,153.053,POINT (153.053 -31.0547),588
NSW,Hollisdale,Hollisdale Hall,Pappinbarra Rd,HOLLISDALE,2446.0,N,2007 Polling Places,"Match 01 - state, premises, postcode",-31.393,152.543,POINT (152.543 -31.393),1461
NSW,Karangi,Karangi Public School,Coramba Rd,KARANGI,2450.0,N,2007 Polling Places,"Match 01 - state, premises, postcode",-30.251,153.05200000000005,POINT (153.052 -30.251),1987
NSW,Kempsey,Kempsey CWA Hall,John St,KEMPSEY,2440.0,N,2007 Polling Places,"Match 01 - state, premises, postcode",-31.0816,152.84,POINT (152.84 -31.0816),591
NSW,Kempsey East,East Kempsey Public School,Innes St,KEMPSEY,2440.0,N,2007 Polling Places,"Match 01 - state, premises, postcode",-31.081,152.852,POINT (152.852 -31.081),591
NSW,Kempsey High,Kempsey High School Assembly Hall,Broughton St,WEST KEMPSEY,2440.0,N,2007 Polling Places,"Match 05 - state, polling_place, postcode",-31.0698,152.82399999999996,POINT (152.824 -31.0698),592
NSW,Kempsey Hospital,Kempsey District Hospital,River St,WEST KEMPSEY,2440.0,A,google geocode,GEOMETRIC_CENTER,-31.07047919999999,152.8208686,POINT (152.8208686 -31.07047919999999),592
NSW,Kempsey South,Melville Community Centre,Albert St,SOUTH KEMPSEY,2440.0,A,2007 Polling Places,"Match 01 - state, premises, postcode",-31.0917,152.828,POINT (152.828 -31.0917),594
NSW,Kempsey West,West Kempsey Public School Hall,Marsh St,WEST KEMPSEY,2440.0,N,2007 Polling Places,"Match 05 - state, polling_place, postcode",-31.0606,152.832,POINT (152.832 -31.0606),592
NSW,Kinchela,Kinchela Public School,Kinchela Creek Rd,KINCHELA,2440.0,N,google geocode,GEOMETRIC_CENTER,-31.019926399999996,152.99649169999998,POINT (152.9964917 -31.0199264),586
NSW,Korora,Korora Public School,Korora School Rd,KORORA,2450.0,A,2010 Polling Places,"Match 02 - state, premises, postcode",-30.2502,153.115,POINT (153.115 -30.2502),596
NSW,Kundabung,Kundabung Hall,Kundabung Rd,KUNDABUNG,2441.0,N,2007 Polling Places,"Match 01 - state, premises, postcode",-31.2124,152.835,POINT (152.835 -31.2124),597
NSW,Lowanna,Lowanna Public School,Coramba Rd,LOWANNA,2450.0,N,2007 Polling Places,"Match 01 - state, premises, postcode",-30.2063,152.899,POINT (152.899 -30.2063),2001
NSW,Macksville,Macksville Senior Citizens Hall,Matilda St,MACKSVILLE,2447.0,F,2007 Polling Places,"Match 01 - state, premises, postcode",-30.7095,152.91899999999995,POINT (152.919 -30.7095),598
NSW,Medlow,Medlow Public School,Taylors Arm Rd,TAYLORS ARM,2447.0,N,google geocode,GEOMETRIC_CENTER,-30.76322099999999,152.73342649999998,POINT (152.7334265 -30.76322099999999),625
NSW,Missabotti,Missabotti Community Hall,Missabotti Rd,MISSABOTTI,2449.0,N,2007 Polling Places,"Match 01 - state, premises, postcode",-30.5677,152.766,POINT (152.766 -30.5677),599
NSW,Moonee Beach,Moonee Beach Community Hall,Moonee Beach Rd,MOONEE BEACH,2450.0,N,2007 Polling Places,"Match 01 - state, premises, postcode",-30.2094,153.157,POINT (153.157 -30.2094),2008
NSW,Mullaway,Mullaway Public School,Old Pacific Hwy,MULLAWAY,2456.0,A,2007 Polling Places,"Match 01 - state, premises, postcode",-30.0927,153.187,POINT (153.187 -30.0927),2009
NSW,Mylestom,Mylestom Hall,River St,MYLESTOM,2454.0,A,2007 Polling Places,"Match 01 - state, premises, postcode",-30.4638,153.043,POINT (153.043 -30.4638),600
NSW,Nambucca Heads,Nambucca Heads Entertainment Centre,Ridge St,NAMBUCCA HEADS,2448.0,N,2007 Polling Places,"Match 01 - state, premises, postcode",-30.6425,153.004,POINT (153.004 -30.6425),601
NSW,Nana Glen,Nana Glen Public School,Grafton Rd,NANA GLEN,2450.0,A,2007 Polling Places,"Match 01 - state, premises, postcode",-30.1563,153.004,POINT (153.004 -30.1563),2010
NSW,Newville,Frank Partridge Public School,Centenary Pde,NEWVILLE,2448.0,F,2007 Polling Places,"Match 01 - state, premises, postcode",-30.6403,152.984,POINT (152.984 -30.6403),603
NSW,Pembrooke,Pembrooke Hall,Pembrooke Rd,PEMBROOKE,2446.0,N,2007 Polling Places,"Match 01 - state, premises, postcode",-31.3803,152.757,POINT (152.757 -31.3803),1475
