,state,polling_place,latitude,longitude
0,NSW,Beverly Hills North,-33.9413,151.075
1,NSW,East Hills,-33.9612,150.982
2,NSW,Riverwood East,-33.9459,151.058
3,NSW,Lugarno,-33.985,151.045
4,NSW,Mortdale West,-33.9616,151.07299999999998
5,NSW,Narwee,-33.9482,151.069
6,NSW,Padstow,-33.9542,151.031
7,NSW,Padstow East,-33.949,151.03
8,NSW,Padstow South,-33.9664,151.031
9,NSW,Panania,-33.9551,150.999
10,NSW,Panania Central,-33.9519,150.998
11,NSW,Panania North,-33.9451,150.999
12,NSW,Panania South,-33.9661,151.0
13,NSW,Peakhurst East,-33.9553,151.061
14,NSW,Peakhurst South,-33.9728,151.056
15,NSW,Peakhurst West,-33.9617,151.049
16,NSW,Penshurst,-33.9626,151.088
17,NSW,Picnic Point North,-33.9649,151.01
18,NSW,Revesby North,-33.9447,151.017
19,NSW,Revesby South,-33.9605,151.017
20,NSW,Riverwood North,-33.9477,151.047
21,NSW,Riverwood South,-33.9525,151.053
22,NSW,Allawah,-33.9768,151.115
23,NSW,Arncliffe,-33.938,151.144
24,NSW,Blakehurst South,-33.9965,151.107
25,NSW,Arncliffe Central,-33.9406,151.14700000000002
26,NSW,Brighton-Le-Sands,-33.9627,151.148
27,NSW,Carss Park,-33.9834,151.116
28,NSW,Sandringham,-33.9991,151.139
29,NSW,Connells Point,-33.9855,151.1
30,NSW,Hurstville South,-33.9726,151.099
31,NSW,Hurstville Grove,-33.9729,151.091
32,NSW,Blakehurst North,-33.9814,151.113
33,NSW,Carlton South,-33.9727,151.128
34,NSW,Kogarah Bay,-33.9839,151.123
35,NSW,Kogarah Central,-33.9616,151.136
36,NSW,Kyeemagh,-33.9497,151.161
37,NSW,Monterey,-33.973,151.145
38,NSW,Kogarah East,-33.9687,151.137
39,NSW,Mortdale Central,-33.9729,151.077
40,NSW,Mortdale East,-33.9727,151.08100000000002
41,NSW,Oatley,-33.9847,151.08100000000002
42,NSW,Oatley West,-33.9796,151.065
43,NSW,Penshurst Central,-33.9641,151.08700000000002
44,NSW,Ramsgate Beach,-33.982,151.144
45,NSW,Rockdale,-33.9527,151.142
46,NSW,Rockdale Central,-33.9537,151.139
47,NSW,Carlton West,-33.9763,151.121
48,NSW,Allawah South,-33.9756,151.111
49,NSW,Sans Souci,-33.9951,151.13
50,NSW,Ramsgate,-33.9847,151.138
51,NSW,Marsfield North,-33.7704,151.1
52,NSW,Boronia Park,-33.8212,151.136
53,NSW,Chatswood South,-33.8056,151.179
54,NSW,Cullen,-33.8099,151.15200000000002
55,NSW,Eastview,-33.7943,151.109
56,NSW,Eastwood Heights,-33.7817,151.096
57,NSW,Epping East,-33.7684,151.08700000000002
58,NSW,Epping North,-33.7576,151.096
59,NSW,Gladesville,-33.8323,151.126
60,NSW,Gladesville North,-33.8277,151.12
61,NSW,Greenwich North,-33.8292,151.188
62,NSW,Hunters Hill,-33.8352,151.151
63,NSW,Hunters Hill West,-33.8315,151.143
64,NSW,Kent Road,-33.7864,151.109
65,NSW,Lane Cove,-33.8164,151.16899999999998
66,NSW,Lane Cove South,-33.8192,151.17
67,NSW,Lane Cove West,-33.8129,151.158
68,NSW,Longueville,-33.8278,151.17
69,NSW,Macquarie Park,-33.7798,151.115
70,NSW,Marsfield,-33.781,151.102
71,NSW,Lane Cove East,-33.8127,151.171
72,NSW,Putney,-33.8249,151.111
73,NSW,Ryde East,-33.8064,151.127
74,NSW,Ryde North,-33.7939,151.12
75,NSW,Truscott,-33.7947,151.13
76,NSW,Asquith,-33.6855,151.112
77,NSW,Berowra,-33.6181,151.14700000000002
78,NSW,Berowra Heights,-33.6094,151.143
79,NSW,Brooklyn,-33.5481,151.215
80,NSW,Cowan,-33.5885,151.16899999999998
81,NSW,Hornsby,-33.7,151.097
82,NSW,Hornsby Heights,-33.6702,151.097
83,NSW,Waitara North,-33.7042,151.111
84,NSW,Hornsby North,-33.6833,151.09799999999998
85,NSW,Hornsby Central,-33.7064,151.102
86,NSW,Hornsby West,-33.7045,151.097
87,NSW,Kissing Point,-33.7565,151.113
88,NSW,Turramurra Valley,-33.6916,151.15200000000002
89,NSW,Mount Colah,-33.6726,151.11700000000002
90,NSW,Mount Kuring-Gai,-33.6575,151.136
91,NSW,Normanhurst,-33.7237,151.09799999999998
92,NSW,Hornsby South,-33.7128,151.096
93,NSW,Normanhurst West,-33.7218,151.088
94,NSW,Pennant Hills,-33.7329,151.061
95,NSW,Pymble North,-33.7318,151.141
96,NSW,Turramurra Central,-33.7292,151.128
97,NSW,Turramurra North,-33.7147,151.14700000000002
98,NSW,Turramurra South,-33.7446,151.113
99,NSW,Wahroonga,-33.7162,151.118
100,NSW,Wahroonga East,-33.7155,151.128
101,NSW,Waitara,-33.7081,151.111
102,NSW,Warrawee,-33.73,151.123
103,NSW,Westleigh,-33.7242,151.072
104,NSW,Bankstown East,-33.9133,151.035
105,NSW,Bankstown Central,-33.9193,151.037
106,NSW,Bankstown North,-33.9055,151.039
107,NSW,Bankstown South,-33.9309,151.039
108,NSW,Bass Hill,-33.9047,151.006
109,NSW,Chester Hill Central,-33.8873,151.001
110,NSW,Bass Hill West,-33.8996,150.99
111,NSW,Cabramatta East,-33.8954,150.942
112,NSW,Chullora,-33.8948,151.056
113,NSW,Condell Park,-33.9255,151.013
114,NSW,Condell Park South,-33.9311,151.02200000000002
115,NSW,Georges Hall,-33.9121,150.993
116,NSW,Greenacre Central,-33.9029,151.053
117,NSW,Greenacre,-33.9113,151.058
118,NSW,Lansvale East,-33.8982,150.964
119,NSW,Milperra,-33.9418,150.98
120,NSW,Punchbowl Central,-33.9235,151.05200000000002
121,NSW,Punchbowl,-33.9307,151.056
122,NSW,Bankstown West,-33.9164,151.02
123,NSW,Wiley Park East,-33.9235,151.07
124,NSW,Wiley Park West,-33.924,151.06799999999998
125,NSW,Yagoona,-33.9056,151.025
126,NSW,Yagoona West,-33.9064,151.02100000000002
127,NSW,Belrose,-33.7389,151.218
128,NSW,St Ives Park,-33.7244,151.178
129,NSW,Forest,-33.7499,151.231
130,NSW,Forestville,-33.7615,151.21200000000002
131,NSW,Forestville East,-33.7655,151.216
132,NSW,Frenchs Forest,-33.751999999999995,151.224
133,NSW,Gordon,-33.7568,151.153
134,NSW,Gordon East,-33.7459,151.157
135,NSW,Gordon West,-33.7601,151.139
136,NSW,Killara,-33.7662,151.165
137,NSW,Killara East,-33.7561,151.174
138,NSW,Killarney Heights,-33.7757,151.216
139,NSW,Lindfield,-33.7745,151.173
140,NSW,Lindfield East,-33.7681,151.184
141,NSW,Lindfield North,-33.7811,151.17
142,NSW,Lindfield West,-33.7747,151.14600000000002
143,NSW,Mimosa,-33.7439,151.204
144,NSW,Pymble,-33.7395,151.137
145,NSW,Pymble West,-33.7639,151.124
146,NSW,Roseville,-33.7842,151.179
147,NSW,Roseville East,-33.782,151.188
148,NSW,St Ives,-33.7291,151.16
149,NSW,St Ives Chase,-33.7085,151.16299999999998
150,NSW,St Ives North,-33.7187,151.164
151,NSW,St Ives South,-33.7403,151.167
152,NSW,Barry,-33.6465,149.27200000000002
153,NSW,Bathurst,-33.4217,149.571
154,NSW,Bathurst Central,-33.42,149.577
155,NSW,Bathurst High,-33.4129,149.569
156,NSW,Bathurst Hospital,-33.4168,149.58100000000002
157,NSW,Bathurst South,-33.4337,149.569
158,NSW,Bathurst West,-33.4118,149.559
159,NSW,Blayney,-33.529,149.252
160,NSW,Bletchington,-33.2693,149.10299999999998
161,NSW,Orange Hospital Bloomfield,-33.317,149.094
162,NSW,Bowen,-33.2802,149.118
163,NSW,Bowenfels South,-33.5152,150.12
164,NSW,Calare School,-33.2872,149.08
165,NSW,Canobolas,-33.3062,149.047
166,NSW,Capertee,-33.1466,149.987
167,NSW,Carcoar,-33.6119,149.142
168,NSW,Cooerwull,-33.4839,150.142
169,NSW,Cullen Bullen,-33.2995,150.033
170,NSW,Dunedoo,-32.0181,149.392
171,NSW,Eglinton,-33.3778,149.54
172,NSW,Glen Alice,-33.0427,150.214
173,NSW,Glenroi,-33.2972,149.112
174,NSW,Gulgong,-32.3616,149.534
175,NSW,Hampton,-33.6488,150.049
176,NSW,Hargraves,-32.7854,149.46200000000002
177,NSW,Hermitage,-33.4799,150.149
178,NSW,Hill End,-33.0349,149.416
179,NSW,Ilford,-32.9668,149.856
180,NSW,Kandos,-32.856,149.975
181,NSW,Kelso,-33.4176,149.60399999999998
182,NSW,Yetholme,-33.4478,149.817
183,NSW,Lithgow,-33.4818,150.16
184,NSW,Lucknow,-33.3445,149.161
185,NSW,Lue,-32.6567,149.846
186,NSW,Lyndhurst,-33.6738,149.045
187,NSW,Mandurama,-33.6518,149.07
188,NSW,Meadow Flat,-33.4344,149.92
189,NSW,Millthorpe,-33.4455,149.186
190,NSW,Mudgee,-32.5914,149.592
191,NSW,Mudgee Central,-32.5984,149.583
192,NSW,Mudgee South,-32.6066,149.584
193,NSW,Neville,-33.709,149.217
194,NSW,Oakey Park,-33.466,150.183
195,NSW,Orange,-33.2855,149.097
196,NSW,Orange East,-33.2848,149.108
197,NSW,Orange North,-33.2798,149.095
198,NSW,Orange South,-33.2931,149.097
199,NSW,Orange West,-33.2809,149.086
200,NSW,Peel,-33.4066,149.56799999999998
201,NSW,Perthville,-33.4913,149.549
202,NSW,Portland,-33.3552,149.97899999999998
203,NSW,Raglan,-33.4283,149.648
204,NSW,Rylstone,-32.7958,149.97299999999998
205,NSW,Spring Hill,-33.3997,149.151
206,NSW,Spring Terrace,-33.394,149.097
207,NSW,Tweed Mills,-33.4849,150.135
208,NSW,Ulan,-32.2822,149.743
209,NSW,Wallerawang,-33.4196,150.071
210,NSW,Wattle Flat,-33.1422,149.692
211,NSW,Windeyer,-32.6611,149.487
212,NSW,Abermain,-32.8104,151.428
213,NSW,Arcadia Vale,-33.0608,151.58
214,NSW,Argenton,-32.9357,151.631
215,NSW,Barnsley,-32.9324,151.594
216,NSW,Blackalls,-32.9988,151.578
217,NSW,Booragul,-32.9737,151.611
218,NSW,Cardiff,-32.9465,151.658
219,NSW,Cardiff Heights,-32.9377,151.683
220,NSW,Cardiff North,-32.9372,151.665
221,NSW,Cardiff South,-32.9526,151.666
222,NSW,Coal Point,-33.0416,151.61
223,NSW,Cooranbong,-33.0789,151.441
224,NSW,Dora Creek,-33.0845,151.502
225,NSW,Edgeworth,-32.9219,151.622
226,NSW,Eleebana,-32.9902,151.643
227,NSW,Fassifern,-32.9832,151.583
228,NSW,Fennell Bay,-32.9923,151.602
229,NSW,Garden Suburb,-32.9472,151.683
230,NSW,Glendale,-32.9272,151.654
231,NSW,Edgeworth Heights,-32.9254,151.61
232,NSW,Kilaben Bay,-33.0264,151.58100000000002
233,NSW,Kurri Kurri,-32.8205,151.47799999999998
234,NSW,Minmi,-32.8838,151.614
235,NSW,Morisset,-33.1029,151.489
236,NSW,Mulbring,-32.9014,151.481
237,NSW,Pelaw Main,-32.8319,151.485
238,NSW,Rathmines,-33.0402,151.594
239,NSW,Speers Point,-32.9602,151.623
240,NSW,Teralba,-32.9627,151.606
241,NSW,Toronto,-33.0086,151.595
242,NSW,Biraban,-33.0081,151.575
243,NSW,Valentine,-33.0084,151.643
244,NSW,Wangi Wangi,-33.0724,151.583
245,NSW,Warners Bay,-32.9682,151.65200000000002
246,NSW,Warners Bay Central,-32.9798,151.648
247,NSW,Weston,-32.8133,151.459
248,NSW,West Wallsend,-32.9112,151.582
249,NSW,St Clair West,-33.7938,150.773
250,NSW,Colyton,-33.7838,150.791
251,NSW,Bidwill,-33.7339,150.826
252,NSW,Blackett,-33.7395,150.816
253,NSW,Blacktown South,-33.7803,150.906
254,NSW,St Clair South,-33.8059,150.783
255,NSW,St Clair East,-33.7963,150.8
256,NSW,Dharruk,-33.7475,150.817
257,NSW,Doonside,-33.765,150.872
258,NSW,Hebersham,-33.7477,150.825
259,NSW,Kemps Creek,-33.8839,150.79
260,NSW,Lethbridge Park,-33.7382,150.80100000000002
261,NSW,Minchinbury,-33.7875,150.83100000000002
262,NSW,Mount Druitt,-33.7673,150.826
263,NSW,Mount Druitt North,-33.7639,150.812
264,NSW,Mount Druitt South,-33.7749,150.814
265,NSW,Plumpton,-33.7491,150.838
266,NSW,Rooty Hill North,-33.769,150.841
267,NSW,Rooty Hill South,-33.7758,150.847
268,NSW,St Clair,-33.7965,150.786
269,NSW,St Marys North,-33.7566,150.783
270,NSW,Shalvey,-33.7278,150.80700000000002
271,NSW,Tregear,-33.7454,150.795
272,NSW,Arndell Park North,-33.7871,150.891
273,NSW,Whalan,-33.7526,150.81
274,NSW,Willmot,-33.7256,150.79399999999998
275,NSW,Burraneer Bay,-34.0507,151.13299999999998
276,NSW,Caringbah South,-34.0537,151.123
277,NSW,Caringbah Central,-34.0462,151.123
278,NSW,Caringbah North,-34.0334,151.121
279,NSW,Caringbah West,-34.0459,151.113
280,NSW,Cronulla,-34.0538,151.148
281,NSW,Cronulla Central,-34.0573,151.153
282,NSW,Cronulla North,-34.0485,151.15200000000002
283,NSW,Cronulla South,-34.0653,151.154
284,NSW,Grays Point,-34.0587,151.072
285,NSW,Gymea North,-34.0265,151.088
286,NSW,Gymea Bay,-34.0468,151.083
287,NSW,Kareela,-34.0131,151.083
288,NSW,Kirrawee South,-34.0436,151.075
289,NSW,Kurnell,-34.0108,151.204
290,NSW,Lilli Pilli,-34.0636,151.119
291,NSW,Miranda,-34.0332,151.09799999999998
292,NSW,Miranda Central,-34.0364,151.101
293,NSW,Miranda North,-34.0314,151.113
294,NSW,Sylvania,-34.0084,151.112
295,NSW,Sylvania Heights,-34.0124,151.09799999999998
296,NSW,Taren Point,-34.0189,151.123
297,NSW,Sylvania South,-34.0196,151.105
298,NSW,Greenhills Beach,-34.0389,151.158
299,NSW,Woolooware,-34.0456,151.14600000000002
300,NSW,Yowie Bay,-34.0479,151.10299999999998
301,NSW,Beechwood,-31.4366,152.681
302,NSW,Bellbrook,-30.8188,152.509
303,NSW,Bellingen,-30.4516,152.895
304,NSW,Boambee,-30.3346,153.077
305,NSW,Bonville,-30.3847,153.05100000000002
306,NSW,Bowraville,-30.6436,152.85399999999998
307,NSW,Coffs Harbour,-30.2917,153.119
308,NSW,Coffs Harbour Central,-30.2987,153.118
309,NSW,Coffs Harbour Jetty,-30.3055,153.136
310,NSW,Coffs Harbour West,-30.2828,153.112
311,NSW,Comboyne,-31.6051,152.472
312,NSW,Crescent Head,-31.1898,152.971
313,NSW,Eungai Creek,-30.831,152.882
314,NSW,Frederickton,-31.0327,152.88
315,NSW,Gladstone,-31.0263,152.946
316,NSW,Gleniffer,-30.3883,152.884
317,NSW,Aldavilla,-31.0555,152.786
318,NSW,Port Macquarie South,-31.4535,152.91899999999998
319,NSW,Hat Head,-31.0514,153.04399999999998
320,NSW,Hibbard,-31.429000000000002,152.88299999999998
321,NSW,Huntingdon,-31.4783,152.661
322,NSW,Karangi,-30.2529,153.047
323,NSW,Kempsey East,-31.0834,152.847
324,NSW,Kempsey High,-31.0693,152.826
325,NSW,Kempsey South,-31.0949,152.83
326,NSW,Kempsey West,-31.0778,152.83
327,NSW,Long Flat,-31.4369,152.49
328,NSW,Macksville,-30.7095,152.91899999999998
329,NSW,Missabotti,-30.566999999999997,152.81
330,NSW,Mylestom,-30.4638,153.043
331,NSW,Nambucca Heads,-30.6421,153.005
332,NSW,Coffs Harbour South,-30.2926,153.10399999999998
333,NSW,Newville,-30.6403,152.984
334,NSW,Pembrooke,-31.3803,152.757
335,NSW,Port Macquarie Central,-31.4293,152.914
336,NSW,Port Macquarie East,-31.4341,152.921
337,NSW,Innes Lake,-31.4633,152.877
338,NSW,Port Macquarie West,-31.4355,152.89600000000002
339,NSW,Raleigh,-30.4497,153.013
340,NSW,Repton,-30.4461,153.029
341,NSW,Rollands Plains,-31.2788,152.679
342,NSW,Sawtell,-30.3629,153.09799999999998
343,NSW,Scotts Head,-30.7494,152.995
344,NSW,South West Rocks,-30.8911,153.039
345,NSW,Stuarts Point,-30.8207,152.994
346,NSW,Tacking Point,-31.4726,152.922
347,NSW,Taylors Arm,-30.765,152.719
348,NSW,Telegraph Point,-31.3338,152.79399999999998
349,NSW,Thora,-30.4294,152.753
350,NSW,Toormina,-30.3512,153.085
351,NSW,Upper Orara,-30.2888,153.013
352,NSW,Urunga,-30.4951,153.02100000000002
353,NSW,Utungun,-30.739,152.829
354,NSW,Valla Beach,-30.5917,153.002
355,NSW,Warrell Creek,-30.7565,152.905
356,NSW,Wauchope,-31.451999999999998,152.731
357,NSW,Wauchope South,-31.4694,152.731
358,NSW,Willawarrin,-30.9259,152.625
359,NSW,Berkeley,-34.4798,150.856
360,NSW,Berkeley South,-34.4797,150.84799999999998
361,NSW,Berkeley West,-34.4751,150.841
362,NSW,Brownsville,-34.4833,150.804
363,NSW,Coniston,-34.4386,150.887
364,NSW,Cringila,-34.4683,150.872
365,NSW,Dapto,-34.497,150.793
366,NSW,Figtree,-34.4389,150.85399999999998
367,NSW,Figtree Heights,-34.4316,150.856
368,NSW,Gwynneville,-34.4181,150.879
369,NSW,Hayes Park,-34.492,150.816
370,NSW,Keiraville,-34.4147,150.873
371,NSW,Koonawarra,-34.5012,150.808
372,NSW,Lake Heights,-34.4902,150.868
373,NSW,Lindsay Park,-34.4298,150.862
374,NSW,Mount Keira,-34.42,150.863
375,NSW,Mount Kembla,-34.4326,150.81799999999998
376,NSW,Mount Saint Thomas,-34.4373,150.87
377,NSW,Port Kembla,-34.4876,150.914
378,NSW,Port Kembla Central,-34.4816,150.901
379,NSW,Primbee,-34.5014,150.882
380,NSW,Unanderra South,-34.4601,150.836
381,NSW,Warrawong,-34.481,150.878
382,NSW,Warrawong Central,-34.4846,150.886
383,NSW,Windang,-34.5316,150.866
384,NSW,Wollongong,-34.4257,150.898
385,NSW,Wollongong Central,-34.4296,150.886
386,NSW,Wollongong North,-34.4247,150.884
387,NSW,Smith's Hill,-34.4192,150.895
388,NSW,Shelly Beach,-33.3716,151.476
389,NSW,Bateau Bay East,-33.3913,151.475
390,NSW,Berkeley Vale,-33.3502,151.436
391,NSW,Berkeley Vale North,-33.34,151.434
392,NSW,Blue Haven,-33.2123,151.504
393,NSW,Bonnells Bay,-33.1136,151.516
394,NSW,Budgewoi,-33.2263,151.549
395,NSW,Buff Point,-33.2302,151.537
396,NSW,Charmhaven,-33.228,151.504
397,NSW,Chittaway Bay,-33.3255,151.43200000000002
398,NSW,Forresters Beach,-33.3956,151.453
399,NSW,Gorokan,-33.2518,151.51
400,NSW,Gwandalan,-33.1383,151.58700000000002
401,NSW,Holgate,-33.4051,151.408
402,NSW,Jilliby,-33.2399,151.38
403,NSW,Kanwal,-33.2626,151.484
404,NSW,Killarney Vale,-33.3651,151.45600000000002
405,NSW,Killarney Vale South,-33.3763,151.465
406,NSW,Kulnura,-33.2261,151.224
407,NSW,Lake Munmorah,-33.1899,151.576
408,NSW,Lisarow,-33.3815,151.376
409,NSW,Long Jetty,-33.3571,151.485
410,NSW,Mannering Park,-33.1525,151.539
411,NSW,Narara,-33.397,151.346
412,NSW,Norah Head,-33.2796,151.566
413,NSW,The Entrance North,-33.3353,151.505
414,NSW,Ourimbah,-33.3558,151.368
415,NSW,San Remo,-33.2153,151.515
416,NSW,Morisset Peninsula,-33.1116,151.564
417,NSW,The Entrance,-33.3463,151.493
418,NSW,Long Jetty East,-33.356,151.494
419,NSW,Toukley,-33.2657,151.54
420,NSW,Toukley East,-33.2675,151.55
421,NSW,Tuggerah,-33.3133,151.415
422,NSW,Tuggerawong,-33.2795,151.486
423,NSW,Tumbi Umbi,-33.3655,151.452
424,NSW,Wamberal,-33.4235,151.441
425,NSW,Wamberal North,-33.4118,151.44899999999998
426,NSW,Terrigal Lagoon,-33.4415,151.438
427,NSW,Erina Heights,-33.4281,151.414
428,NSW,Hamlyn Terrace,-33.2505,151.468
429,NSW,Wyee,-33.1758,151.483
430,NSW,Wyong,-33.2753,151.412
431,NSW,Wyong Creek,-33.2676,151.34799999999998
432,NSW,Yarramalong,-33.2233,151.278
433,NSW,Beecroft,-33.7523,151.065
434,NSW,Carlingford,-33.78,151.055
435,NSW,Carlingford North,-33.7722,151.037
436,NSW,Cumberland High,-33.7855,151.03799999999998
437,NSW,Cheltenham,-33.7578,151.07399999999998
438,NSW,Denistone,-33.7924,151.084
439,NSW,Denistone East,-33.7935,151.097
440,NSW,Yates Avenue,-33.7963,151.058
441,NSW,Dundas Valley,-33.7909,151.05100000000002
442,NSW,Eastwood,-33.7928,151.078
443,NSW,Eastwood West,-33.7906,151.067
444,NSW,Epping,-33.7745,151.079
445,NSW,Epping Heights,-33.7628,151.07399999999998
446,NSW,Denistone West,-33.8036,151.07
447,NSW,Meadowbank,-33.8148,151.092
448,NSW,North Rocks,-33.7688,151.026
449,NSW,Oatlands,-33.8002,151.023
450,NSW,Ryde,-33.8128,151.105
451,NSW,Ryde Heights,-33.8178,151.09799999999998
452,NSW,Ryde South,-33.8218,151.108
453,NSW,Telopea,-33.7966,151.043
454,NSW,West Ryde,-33.8087,151.085
455,NSW,Adaminaby,-35.9934,148.77700000000002
456,NSW,Araluen,-35.6519,149.813
457,NSW,Batehaven,-35.7295,150.195
458,NSW,Batemans Bay,-35.7117,150.178
459,NSW,Bawley Point,-35.5569,150.377
460,NSW,Bega,-36.6783,149.839
461,NSW,Bega Central,-36.6707,149.841
462,NSW,Bemboka,-36.6316,149.575
463,NSW,Bermagui,-36.4289,150.076
464,NSW,Berridale,-36.3723,148.829
465,NSW,Bimbimbie,-36.8925,149.906
466,NSW,Bodalla,-36.0976,150.053
467,NSW,Bombala,-36.9168,149.232
468,NSW,Braidwood,-35.4413,149.798
469,NSW,Bredbo,-35.954,149.148
470,NSW,Brogo,-36.574,149.82299999999998
471,NSW,Bungendore,-35.2552,149.445
472,NSW,Burrill Lake,-35.3849,150.453
473,NSW,Candelo,-36.7684,149.696
474,NSW,Captains Flat,-35.5919,149.445
475,NSW,Central Tilba,-36.3126,150.076
476,NSW,Cobargo,-36.389,149.889
477,NSW,Cooma,-36.2375,149.125
478,NSW,Cooma North,-36.2183,149.131
479,NSW,Dalgety,-36.5028,148.83700000000002
480,NSW,Dalmeny,-36.1618,150.12
481,NSW,Delegate,-37.0415,148.938
482,NSW,Eden,-37.0561,149.907
483,NSW,Jerangle,-35.9275,149.35
484,NSW,Jindabyne,-36.4151,148.624
485,NSW,Majors Creek,-35.569,149.74200000000002
486,NSW,Merimbula,-36.887,149.917
487,NSW,Michelago,-35.7056,149.161
488,NSW,Milton,-35.3176,150.437
489,NSW,Mogo,-35.7852,150.14
490,NSW,Mollymook/Narrawallee,-35.3209,150.465
491,NSW,Moruya,-35.9127,150.076
492,NSW,Narooma,-36.2162,150.129
493,NSW,Nelligen,-35.6479,150.142
494,NSW,Nimmitabel,-36.5107,149.289
495,NSW,Pambula,-36.9264,149.872
496,NSW,Quaama,-36.4642,149.871
497,NSW,Queanbeyan,-35.3572,149.236
498,NSW,Queanbeyan Central,-35.354,149.235
499,NSW,Queanbeyan East,-35.3445,149.246
500,NSW,Queanbeyan High,-35.3527,149.222
501,NSW,Queanbeyan North,-35.3523,149.231
502,NSW,Queanbeyan South,-35.3656,149.22899999999998
503,NSW,Queanbeyan West,-35.3478,149.215
504,NSW,South Durras,-35.6642,150.292
505,NSW,Sunshine Bay,-35.741,150.21
506,NSW,Tanja,-36.6408,149.975
507,NSW,Tathra,-36.7336,149.97899999999998
508,NSW,Towamba,-37.0848,149.695
509,NSW,Tuross Head,-36.0387,150.124
510,NSW,Ulladulla,-35.3597,150.47
511,NSW,Wamboin,-35.251999999999995,149.306
512,NSW,Wolumla,-36.834,149.81
513,NSW,Wyndham,-36.9292,149.64600000000002
514,NSW,Albury,-36.083,146.91899999999998
515,NSW,Albury East,-36.071,146.945
516,NSW,Albury Central,-36.0733,146.917
517,NSW,Albury North,-36.0641,146.93200000000002
518,NSW,Albury West,-36.0783,146.895
519,NSW,Balranald,-34.6362,143.564
520,NSW,Barham,-35.6301,144.127
521,NSW,Barooga,-35.9129,145.69299999999998
522,NSW,Berrigan,-35.6594,145.815
523,NSW,Blighty,-35.5887,145.34799999999998
524,NSW,Bunnaloo,-35.7838,144.595
525,NSW,Buronga,-34.17,142.18200000000002
526,NSW,Burrumbuttock,-35.8378,146.8
527,NSW,Collingullie,-35.0886,147.127
528,NSW,Corowa,-35.9925,146.394
529,NSW,Corowa Central,-35.9942,146.381
530,NSW,Corowa South,-36.0212,146.376
531,NSW,Culcairn,-35.6679,147.04
532,NSW,Dareton,-34.0915,142.041
533,NSW,Deniliquin,-35.5359,144.961
534,NSW,Deniliquin North,-35.5255,144.982
535,NSW,Deniliquin West,-35.5246,144.952
536,NSW,Euston,-34.5754,142.745
537,NSW,Finley,-35.6402,145.57299999999998
538,NSW,Gerogery,-35.8368,146.99200000000002
539,NSW,Glenroy,-36.0556,146.917
540,NSW,Gol Gol,-34.179,142.222
541,NSW,Henty,-35.5166,147.031
542,NSW,Holbrook,-35.7175,147.32
543,NSW,Howlong,-35.9806,146.636
544,NSW,Hume,-36.0498,146.947
545,NSW,Jerilderie,-35.3554,145.726
546,NSW,Jindera,-35.9588,146.887
547,NSW,Jingellic,-35.9257,147.697
548,NSW,Khancoban,-36.2164,148.13
549,NSW,Koraleigh,-35.1564,143.418
550,NSW,Lavington,-36.0291,146.936
551,NSW,Lavington East,-36.04,146.94799999999998
552,NSW,Lockhart,-35.2224,146.714
553,NSW,Mathoura,-35.8134,144.898
554,NSW,Moama,-36.1146,144.762
555,NSW,Moulamein,-35.0892,144.034
556,NSW,Mulwala,-35.988,146.006
557,NSW,Murray Downs,-35.3454,143.599
558,NSW,Oaklands,-35.5526,146.17
559,NSW,Pleasant Hills,-35.4667,146.8
560,NSW,Rosewood,-35.6705,147.862
561,NSW,Table Top,-35.9679,147.007
562,NSW,The Rock,-35.2707,147.119
563,NSW,Thurgoona,-36.047,146.983
564,NSW,Tocumwal,-35.8143,145.56799999999998
565,NSW,Tooleybuc,-35.0269,143.338
566,NSW,Tooma,-35.9648,148.058
567,NSW,Tumbarumba,-35.7847,148.017
568,NSW,Urana,-35.3279,146.267
569,NSW,Wakool,-35.4669,144.393
570,NSW,Walbundrie,-35.6875,146.726
571,NSW,Walla Walla,-35.7591,146.90200000000002
572,NSW,Wentworth,-34.103,141.91899999999998
573,NSW,Yerong Creek,-35.3868,147.061
574,NSW,Ashcroft,-33.9162,150.89700000000002
575,NSW,Austral,-33.9344,150.813
576,NSW,Bonnyrigg,-33.8884,150.888
577,NSW,Bringelly,-33.9384,150.73
578,NSW,Green Valley East,-33.9096,150.874
579,NSW,Cabramatta,-33.8921,150.939
580,NSW,Cabramatta South,-33.8989,150.929
581,NSW,Cabramatta West,-33.8968,150.923
582,NSW,Cartwright,-33.9254,150.89
583,NSW,Chipping Norton,-33.912,150.96
584,NSW,Edensor Park North,-33.8745,150.879
585,NSW,Greenfield Park,-33.8735,150.891
586,NSW,Green Valley,-33.9082,150.866
587,NSW,Cabramatta West Central,-33.8897,150.908
588,NSW,Heckenberg,-33.9093,150.891
590,NSW,Liverpool,-33.9238,150.92600000000002
591,NSW,Liverpool West,-33.9271,150.907
592,NSW,Luddenham,-33.8816,150.692
593,NSW,Liverpool Central,-33.9171,150.914
594,NSW,Miller,-33.9229,150.881
595,NSW,Mount Pritchard,-33.9004,150.9
596,NSW,Mount Pritchard East,-33.9049,150.912
597,NSW,Mulgoa,-33.8367,150.654
598,NSW,Newbridge Heights,-33.9266,150.952
599,NSW,Sadleir,-33.9165,150.891
600,NSW,St Johns Park,-33.8874,150.898
601,NSW,Wakeley,-33.8792,150.912
602,NSW,Wallacia,-33.8624,150.642
603,NSW,Warwick Farm,-33.9106,150.929
604,NSW,Avoca,-34.5917,150.47899999999998
605,NSW,Bigga,-34.0845,149.149
606,NSW,Binda,-34.3309,149.36700000000002
607,NSW,Boorowa,-34.4373,148.726
608,NSW,Bradfordville,-34.7233,149.741
609,NSW,Bundanoon,-34.6544,150.30100000000002
610,NSW,Bungonia,-34.8561,149.944
611,NSW,Callala Beach,-35.0127,150.69299999999998
612,NSW,Cambewarra,-34.8209,150.55700000000002
613,NSW,Collector,-34.9161,149.436
614,NSW,Lake Conjola,-35.2698,150.489
615,NSW,Cowra,-33.8344,148.692
616,NSW,Cowra West,-33.8361,148.659
617,NSW,Crookwell,-34.4599,149.47
618,NSW,Cudmirrah,-35.1979,150.559
619,NSW,Culburra,-34.933,150.762
620,NSW,Currarong,-35.015,150.82399999999998
621,NSW,Dalton,-34.7205,149.18
622,NSW,Erowal Bay,-35.0999,150.653
623,NSW,Exeter,-34.6138,150.31799999999998
624,NSW,Falls Creek,-34.9661,150.594
625,NSW,Frogmore,-34.2651,148.841
626,NSW,Goulburn,-34.7501,149.72
627,NSW,Goulburn Heights,-34.7464,149.711
628,NSW,Goulburn North,-34.7471,149.732
629,NSW,Goulburn South,-34.7588,149.71200000000002
630,NSW,Goulburn West,-34.7592,149.701
631,NSW,Grabben Gullen,-34.542,149.395
632,NSW,Greenwell Point,-34.9077,150.73
633,NSW,Gundaroo,-35.0301,149.27100000000002
634,NSW,Gunning,-34.7833,149.266
635,NSW,Huskisson,-35.0351,150.667
636,NSW,Kangaroo Valley,-34.7363,150.536
637,NSW,Koorawatha,-34.036,148.558
638,NSW,Laggan,-34.4018,149.53
639,NSW,Manyana,-35.2583,150.511
640,NSW,Marulan,-34.71,150.007
641,NSW,Morongla Creek,-34.042,148.72899999999998
642,NSW,Cowra North,-33.8278,148.688
643,NSW,Murringo,-34.6033,148.755
644,NSW,Nowra,-34.8795,150.601
645,NSW,Nowra East,-34.8829,150.607
646,NSW,Nowra Hill,-34.9361,150.566
647,NSW,Illaroo,-34.8597,150.59
648,NSW,Orient Point,-34.9097,150.748
649,NSW,Rye Park,-34.5176,148.909
650,NSW,St Georges Basin,-35.0887,150.595
651,NSW,Sanctuary Point,-35.106,150.63
652,NSW,Nowra Centre,-34.8746,150.6
653,NSW,Sussex Inlet,-35.1666,150.585
654,NSW,Sutton Forest,-34.5714,150.316
655,NSW,Tallong,-34.7203,150.08700000000002
656,NSW,Tarago,-35.0695,149.654
657,NSW,Taralga,-34.4025,149.82
658,NSW,Terara,-34.8667,150.63
659,NSW,Tomerong,-35.0457,150.584
660,NSW,Tuena,-34.0163,149.328
661,NSW,Vincentia,-35.0733,150.67
662,NSW,Wingello,-34.6894,150.166
663,NSW,Wombat,-34.4249,148.24200000000002
664,NSW,Woodstock,-33.746,148.849
665,NSW,Young,-34.3116,148.292
666,NSW,Young North,-34.3112,148.306
667,NSW,Ashbury,-33.8989,151.119
668,NSW,Ashfield,-33.8888,151.126
669,NSW,Ashfield East,-33.8897,151.128
670,NSW,Ashfield North,-33.8824,151.128
671,NSW,Belmore Central,-33.9168,151.089
672,NSW,Belmore North,-33.9105,151.084
673,NSW,Campsie,-33.9125,151.105
674,NSW,Campsie South,-33.9146,151.10399999999998
675,NSW,Canterbury North,-33.9088,151.123
676,NSW,Croydon South,-33.8871,151.115
677,NSW,Dulwich Hill West,-33.9029,151.142
678,NSW,Enfield South,-33.8994,151.091
679,NSW,Enfield West,-33.8928,151.086
680,NSW,Harcourt,-33.9096,151.095
681,NSW,Harcourt North,-33.906,151.086
682,NSW,Hurlstone Park,-33.9085,151.132
683,NSW,Lakemba,-33.9164,151.078
684,NSW,Lakemba Central,-33.9274,151.08
685,NSW,Lakemba North,-33.9154,151.07399999999998
686,NSW,Marrickville,-33.909,151.154
687,NSW,Marrickville Central,-33.9062,151.162
688,NSW,Marrickville South,-33.9207,151.15200000000002
689,NSW,Marrickville West,-33.9144,151.14600000000002
690,NSW,Dulwich Hill South,-33.9054,151.14
691,NSW,Summer Hill,-33.8919,151.135
692,NSW,Summer Hill South,-33.8959,151.136
693,NSW,The Warren,-33.9155,151.15
694,NSW,Ashfield South,-33.9023,151.13
695,NSW,Toongabbie West,-33.7925,150.957
696,NSW,Dean Park,-33.7339,150.858
697,NSW,Doonside North,-33.7563,150.875
698,NSW,Seven Hills South,-33.786,150.934
699,NSW,Marayong West,-33.7476,150.891
700,NSW,Kings Langley,-33.7456,150.924
701,NSW,Kings Langley North,-33.7438,150.925
702,NSW,Lalor Park,-33.7609,150.93200000000002
703,NSW,Prospect West,-33.7944,150.912
704,NSW,Lynwood Park,-33.7544,150.92600000000002
705,NSW,Marayong,-33.7565,150.895
706,NSW,Marayong Heights,-33.7429,150.89600000000002
707,NSW,Marayong South,-33.7606,150.885
708,NSW,Marsden Park,-33.696,150.834
709,NSW,Toongabbie,-33.7941,150.934
710,NSW,Oldfield Road,-33.7773,150.925
711,NSW,Glenwood,-33.7262,150.935
712,NSW,Quakers Hill,-33.7377,150.885
713,NSW,Quakers Hill East,-33.7292,150.89600000000002
714,NSW,Riverstone,-33.6759,150.863
715,NSW,Riverstone East,-33.6792,150.875
716,NSW,Schofields,-33.6923,150.875
717,NSW,Seven Hills,-33.7708,150.938
718,NSW,Seven Hills East,-33.7626,150.945
719,NSW,Seven Hills North,-33.7595,150.955
720,NSW,Seven Hills West,-33.7663,150.922
721,NSW,Blacktown East,-33.7853,150.915
722,NSW,Seven Hills Central,-33.7813,150.939
723,NSW,Aberdeen,-32.1663,150.889
724,NSW,Ashley,-29.315,149.806
725,NSW,Baan Baa,-30.599,149.953
726,NSW,Barraba,-30.3734,150.61
727,NSW,Baradine,-30.9511,149.07
728,NSW,Bellata,-29.9177,149.796
729,NSW,Bingara,-29.8669,150.56799999999998
730,NSW,Binnaway,-31.5533,149.379
731,NSW,Blackville,-31.6429,150.239
732,NSW,Blandford,-31.7784,150.892
733,NSW,Boggabilla,-28.6153,150.363
734,NSW,Boggabri,-30.7059,150.043
735,NSW,Boomi,-28.7246,149.577
736,NSW,Breeza,-31.247,150.468
737,NSW,Bullarah,-29.4647,149.08
738,NSW,Burren Junction,-30.1031,148.967
739,NSW,Carinda,-30.4622,147.69299999999998
740,NSW,Caroona,-31.4066,150.425
741,NSW,Carroll,-30.9861,150.447
742,NSW,Cassilis,-32.0053,149.97799999999998
743,NSW,Collarenebri,-29.5437,148.578
744,NSW,Coolah,-31.8214,149.724
745,NSW,Coolatai,-29.2514,150.751
746,NSW,Coonabarabran,-31.2566,149.291
747,NSW,Croppa Creek,-29.1243,150.305
748,NSW,Cumborah,-29.744,147.77
749,NSW,Curlewis,-31.1175,150.263
750,NSW,Currabubula,-31.2633,150.735
751,NSW,Dangar Village,-30.3349,149.774
752,NSW,Delungra,-29.6517,150.83100000000002
753,NSW,Garah,-29.0759,149.634
754,NSW,Goodooga,-29.1144,147.454
755,NSW,Gravesend,-29.5852,150.334
756,NSW,Gundy,-32.0143,150.999
757,NSW,Gunnedah,-30.9752,150.251
758,NSW,Gwabegar,-30.6097,148.974
759,NSW,Lightning Ridge,-29.426,147.97899999999998
760,NSW,Manilla,-30.7464,150.72
761,NSW,Mendooran,-31.8186,149.123
762,NSW,Moree,-29.4648,149.843
763,NSW,Moree East,-29.4791,149.839
764,NSW,Moree West,-29.4628,149.838
765,NSW,Gunnedah South,-30.9915,150.251
766,NSW,Mullaley,-31.0989,149.907
767,NSW,Mungindi,-28.9788,149.001
768,NSW,Murrurundi,-31.7644,150.835
769,NSW,Muswellbrook,-32.2667,150.893
770,NSW,Muswellbrook East,-32.2818,150.89600000000002
771,NSW,Narrabri,-30.3245,149.785
772,NSW,Narrabri West,-30.3367,149.754
773,NSW,North Star,-28.926,150.393
774,NSW,Pallamallawa,-29.4732,150.141
775,NSW,Pilliga,-30.3522,148.889
776,NSW,Premer,-31.4549,149.901
777,NSW,Purlewaugh,-31.3463,149.502
778,NSW,Quirindi,-31.5018,150.68
779,NSW,Rowena,-29.8139,148.912
780,NSW,Scone,-32.05,150.863
781,NSW,Scone South,-32.0562,150.871
782,NSW,Scone East,-32.0501,150.874
783,NSW,Spring Ridge,-31.3912,150.257
784,NSW,Tambar Springs,-31.3487,149.828
785,NSW,Upper Horton,-30.1408,150.444
786,NSW,Warialda,-29.5409,150.576
787,NSW,Walgett,-30.0263,148.119
788,NSW,Wallabadah,-31.5408,150.828
789,NSW,Wee Waa,-30.2261,149.44
790,NSW,Werris Creek,-31.3492,150.651
791,NSW,Wingen,-31.8938,150.88
792,NSW,Willow Tree,-31.6452,150.726
793,NSW,Yetman,-28.9009,150.775
794,NSW,Menai North,-34.0029,151.02700000000002
795,NSW,Bangor,-34.0193,151.029
796,NSW,Engadine South,-34.0651,151.00799999999998
797,NSW,Bonnet Bay,-34.0128,151.056
798,NSW,Bundeena,-34.0846,151.14600000000002
799,NSW,Coledale,-34.2895,150.947
800,NSW,Como West,-34.0048,151.061
801,NSW,Engadine,-34.0639,151.012
802,NSW,Engadine North,-34.0468,151.026
803,NSW,Engadine West,-34.059,151.003
804,NSW,Gymea,-34.0371,151.084
805,NSW,Hammondville,-33.9478,150.954
806,NSW,Heathcote,-34.0865,151.007
807,NSW,Heathcote East,-34.0824,151.012
808,NSW,Helensburgh,-34.1924,150.981
809,NSW,Helensburgh North,-34.1839,150.989
810,NSW,Holsworthy,-33.9558,150.955
811,NSW,Illawong,-33.9985,151.043
812,NSW,Jannali East,-34.018,151.07299999999998
813,NSW,Jannali West,-34.0227,151.062
814,NSW,Kirrawee,-34.0331,151.078
815,NSW,Loftus,-34.0461,151.05100000000002
816,NSW,Menai,-34.0114,151.007
817,NSW,Moorebank,-33.9334,150.952
818,NSW,Oyster Bay,-34.0081,151.078
819,NSW,Stanwell Park,-34.2291,150.985
820,NSW,Sutherland,-34.0319,151.06
821,NSW,Sutherland West,-34.0281,151.059
822,NSW,Wombarra,-34.2745,150.958
823,NSW,Woronora River,-34.0266,151.042
824,NSW,Yarrawarrah,-34.0569,151.02700000000002
825,NSW,Adelong,-35.3081,148.066
826,NSW,Adjungbilly,-35.0851,148.4
827,NSW,Ardlethan,-34.3564,146.90200000000002
828,NSW,Ariah Park,-34.3477,147.22
829,NSW,Ashmont,-35.125,147.332
830,NSW,Batlow,-35.5208,148.14700000000002
831,NSW,Binalong,-34.6699,148.625
832,NSW,Bowning,-34.7674,148.819
833,NSW,Bribbaree,-34.1196,147.876
834,NSW,Caragabal,-33.8459,147.74
835,NSW,Coolac,-34.9253,148.165
836,NSW,Coolamon,-34.8189,147.202
837,NSW,Cootamundra,-34.6384,148.02700000000002
838,NSW,Cootamundra West,-34.6355,148.019
839,NSW,Euberta,-35.0588,147.196
840,NSW,Forest Hill,-35.1482,147.467
841,NSW,Ganmain,-34.7929,147.039
842,NSW,Greenethorpe,-33.9952,148.405
843,NSW,Grenfell,-33.8945,148.155
844,NSW,Gundagai,-35.0577,148.1
845,NSW,Gundagai South,-35.0801,148.10299999999998
846,NSW,Harden,-34.5544,148.368
847,NSW,Illabo,-34.8136,147.74
848,NSW,Jugiong,-34.8239,148.334
849,NSW,Junee,-34.8695,147.592
850,NSW,Kooringal,-35.1487,147.373
851,NSW,Ladysmith,-35.2093,147.511
852,NSW,Lake Albert,-35.1738,147.38
853,NSW,Mangoplah,-35.3773,147.255
854,NSW,Marrar,-34.8273,147.352
855,NSW,Mount Austin,-35.1351,147.352
856,NSW,Murrumbateman,-34.9694,149.031
857,NSW,Murrumburrah,-34.5476,148.346
858,NSW,Nangus,-35.0535,147.908
859,NSW,Quandialla,-34.0107,147.791
860,NSW,Charles Sturt University,-35.0569,147.349
861,NSW,Stockinbingal,-34.4977,147.88299999999998
862,NSW,Kooringal North,-35.1368,147.377
863,NSW,Talbingo,-35.5803,148.30100000000002
864,NSW,Tarcutta,-35.2769,147.737
865,NSW,Tatton,-35.154,147.363
866,NSW,Temora,-34.4446,147.535
867,NSW,Tolland,-35.1463,147.34799999999998
868,NSW,Tumblong,-35.15,147.998
869,NSW,Tumut,-35.3069,148.211
870,NSW,Turvey Park,-35.1294,147.357
871,NSW,Uranquinty,-35.1895,147.249
872,NSW,Wagga Wagga,-35.1067,147.372
873,NSW,Wagga Wagga North,-35.0965,147.379
874,NSW,Wallendbeen,-34.5242,148.161
875,NSW,Wattle Park,-35.1413,149.05200000000002
876,NSW,Wee Jasper,-35.1107,148.673
877,NSW,Yass,-34.8426,148.912
878,NSW,Wagga Wagga South,-35.1194,147.36700000000002
879,NSW,Aberdare,-32.8421,151.369
880,NSW,Ashtonfield,-32.7719,151.6
881,NSW,Bellbird,-32.8598,151.316
882,NSW,Beresfield,-32.8038,151.654
883,NSW,Bolwarra,-32.7074,151.57299999999998
884,NSW,Branxton,-32.6572,151.35
885,NSW,Broke,-32.7451,151.10399999999998
886,NSW,Cessnock East,-32.8282,151.37
887,NSW,Cessnock North,-32.8234,151.35299999999998
888,NSW,Cessnock West,-32.8387,151.345
889,NSW,Denman,-32.3919,150.688
890,NSW,East Maitland,-32.749,151.585
891,NSW,East Maitland South,-32.7604,151.592
892,NSW,Elderslie,-32.6015,151.33700000000002
893,NSW,Ellalong,-32.9144,151.31
894,NSW,Gillieston Heights,-32.7521,151.531
895,NSW,Gresford,-32.431,151.553
896,NSW,Greta,-32.677,151.39
897,NSW,Hinton,-32.7166,151.651
898,NSW,Jerrys Plains,-32.4967,150.906
899,NSW,Kearsley,-32.8569,151.39600000000002
900,NSW,Kitchener,-32.8769,151.369
901,NSW,Largs,-32.7002,151.606
902,NSW,Lochinvar,-32.7002,151.452
903,NSW,Lorn,-32.7273,151.56
904,NSW,Lower Belford,-32.6102,151.291
905,NSW,Maitland,-32.7368,151.56
906,NSW,East Maitland Central,-32.7474,151.597
907,NSW,Martins Creek,-32.566,151.624
908,NSW,Merriwa,-32.1415,150.35299999999998
909,NSW,Metford,-32.7654,151.613
910,NSW,Milbrodale,-32.6966,151.005
911,NSW,Millers Forest,-32.7497,151.704
912,NSW,Millfield,-32.8894,151.248
913,NSW,Morpeth,-32.7262,151.627
914,NSW,Nulkaba,-32.8106,151.34799999999998
915,NSW,Paterson Central,-32.6062,151.6
916,NSW,Pokolbin,-32.7944,151.284
917,NSW,Raymond Terrace North,-32.758,151.756
918,NSW,North Rothbury,-32.6797,151.349
919,NSW,Rutherford,-32.7212,151.53
920,NSW,Rutherford North,-32.7121,151.532
921,NSW,Sandy Hollow,-32.3339,150.566
922,NSW,Seaham,-32.6627,151.72899999999998
923,NSW,Singleton,-32.5633,151.171
924,NSW,Singleton Heights,-32.5488,151.16299999999998
925,NSW,Singleton South,-32.5684,151.17700000000002
926,NSW,Tarro,-32.8101,151.66299999999998
927,NSW,Telarah,-32.7255,151.532
928,NSW,Tenambit,-32.7422,151.605
929,NSW,Thornton,-32.7797,151.641
930,NSW,Vacy,-32.5421,151.577
931,NSW,Wollombi,-32.9387,151.141
932,NSW,Woodberry,-32.7918,151.67
933,NSW,Woodville,-32.6652,151.60399999999998
934,NSW,Alexandria,-33.9013,151.196
935,NSW,Banksmeadow,-33.9537,151.20600000000002
936,NSW,Botany,-33.9422,151.195
937,NSW,Botany East,-33.942,151.214
938,NSW,Bunnerong,-33.9584,151.232
939,NSW,Chifley,-33.9662,151.243
940,NSW,Darlington,-33.8928,151.19
941,NSW,Eastlakes,-33.9316,151.208
942,NSW,Eastlakes East,-33.9259,151.215
943,NSW,Erskineville,-33.9005,151.186
944,NSW,Rosebery West,-33.9213,151.19799999999998
945,NSW,Hillsdale,-33.9554,151.23
946,NSW,La Perouse,-33.9792,151.236
947,NSW,Malabar,-33.9624,151.249
948,NSW,Maroubra Bay,-33.9447,151.253
949,NSW,Maroubra Junction,-33.9363,151.24
950,NSW,Mascot,-33.9291,151.19299999999998
951,NSW,Mascot East,-33.9277,151.201
952,NSW,Mascot North,-33.9256,151.194
953,NSW,Matraville,-33.9583,151.24
954,NSW,Maroubra West,-33.9448,151.235
955,NSW,Maroubra South,-33.9474,151.252
956,NSW,Redfern West,-33.8947,151.201
957,NSW,Redfern,-33.8923,151.204
958,NSW,Rosebery,-33.9164,151.208
959,NSW,St Peters,-33.913000000000004,151.17600000000002
960,NSW,Zetland South,-33.9088,151.20600000000002
961,NSW,Sydenham,-33.9156,151.167
962,NSW,Tempe,-33.9199,151.161
963,NSW,Waterloo,-33.8968,151.204
964,NSW,Zetland,-33.9038,151.203
965,NSW,Blaxland,-33.7548,150.605
966,NSW,Blaxland East,-33.7468,150.623
967,NSW,Cranebrook South,-33.721,150.709
968,NSW,Cambridge Gardens,-33.7373,150.72299999999998
969,NSW,Cambridge Park,-33.748000000000005,150.726
970,NSW,Cambridge Park South,-33.7523,150.734
971,NSW,Emu Heights,-33.7361,150.65
972,NSW,Emu Plains,-33.756,150.658
973,NSW,Glenbrook,-33.7663,150.61700000000002
974,NSW,Jamisontown,-33.7724,150.683
975,NSW,Kingswood,-33.7642,150.726
976,NSW,Penrith North,-33.7413,150.711
977,NSW,Kingswood South,-33.7697,150.71200000000002
978,NSW,Lapstone,-33.7717,150.631
979,NSW,Leonay,-33.7647,150.651
980,NSW,Mount Riverview,-33.7298,150.63299999999998
981,NSW,Emu Plains North,-33.7487,150.67
982,NSW,Orchard Hills,-33.7823,150.722
983,NSW,Oxley Park,-33.7709,150.789
984,NSW,Penrith,-33.7548,150.694
985,NSW,Kingswood North,-33.7535,150.714
986,NSW,Penrith South,-33.7642,150.701
987,NSW,Regentville,-33.7767,150.668
988,NSW,St Marys,-33.7684,150.77100000000002
989,NSW,St Marys South,-33.7795,150.776
990,NSW,Jamisontown West,-33.7638,150.681
991,NSW,Werrington,-33.7545,150.746
992,NSW,Werrington County,-33.7454,150.747
993,NSW,York,-33.7747,150.69899999999998
994,NSW,Abbotsford,-33.8528,151.13
995,NSW,Burwood,-33.8773,151.1
996,NSW,Burwood East,-33.8757,151.113
997,NSW,Burwood Park,-33.872,151.10399999999998
998,NSW,Chiswick,-33.8541,151.139
999,NSW,Concord,-33.864000000000004,151.094
1000,NSW,Concord East,-33.8634,151.107
1001,NSW,Concord North,-33.8397,151.086
1002,NSW,Concord West,-33.8456,151.089
1003,NSW,Croydon Park,-33.8945,151.109
1004,NSW,Drummoyne,-33.8561,151.153
1005,NSW,Drummoyne North,-33.8512,151.153
1006,NSW,Enfield,-33.8893,151.094
1007,NSW,Five Dock,-33.8667,151.128
1008,NSW,Five Dock Central,-33.8688,151.129
1009,NSW,Flemington,-33.8658,151.067
1010,NSW,Homebush,-33.8674,151.085
1011,NSW,Homebush North,-33.859,151.08700000000002
1012,NSW,Malvern Hill,-33.8838,151.11
1013,NSW,Mortlake,-33.8495,151.10399999999998
1014,NSW,Rhodes,-33.8269,151.089
1015,NSW,Russell Lea,-33.8613,151.142
1016,NSW,Strathfield,-33.8744,151.083
1017,NSW,Strathfield Central,-33.8796,151.082
1018,NSW,Strathfield North,-33.8548,151.092
1019,NSW,Strathfield South,-33.8909,151.085
1020,NSW,Strathfield West,-33.876999999999995,151.07
1021,NSW,Wareemba,-33.861,151.13299999999998
1022,NSW,Concord City,-33.8546,151.10399999999998
1023,NSW,Anna Bay,-32.7769,152.09
1024,NSW,Barrington,-31.9714,151.911
1025,NSW,Bobs Farm,-32.7666,152.012
1026,NSW,Bonny Hills,-31.5911,152.839
1027,NSW,Booral,-32.4663,151.961
1028,NSW,Bulahdelah,-32.4127,152.21200000000002
1029,NSW,Bungwahl,-32.3895,152.44799999999998
1030,NSW,Burrell Creek,-31.9526,152.296
1031,NSW,Chatham,-31.8966,152.48
1032,NSW,Clarence Town,-32.5897,151.77700000000002
1033,NSW,Coolongolook,-32.2147,152.321
1034,NSW,Coopernook,-31.8251,152.613
1035,NSW,Corlette,-32.7177,152.112
1036,NSW,Cundletown,-31.8999,152.52200000000002
1037,NSW,Dunbogan,-31.6457,152.816
1038,NSW,Dungog,-32.4055,151.75799999999998
1039,NSW,Dyers Crossing,-32.0939,152.30100000000002
1040,NSW,Elands,-31.6335,152.296
1041,NSW,Forster East,-32.1794,152.51
1042,NSW,Forster South,-32.2015,152.52
1043,NSW,Gloucester,-32.0092,151.959
1044,NSW,Gloucester South,-32.0173,151.96
1045,NSW,Hallidays Point,-32.0649,152.52700000000002
1046,NSW,Hannam Vale,-31.712,152.594
1047,NSW,Harrington,-31.8719,152.69
1048,NSW,Hawks Nest,-32.673,152.179
1049,NSW,Herons Creek,-31.5884,152.72899999999998
1050,NSW,Johns River,-31.7331,152.697
1051,NSW,Karuah,-32.6542,151.966
1052,NSW,Kendall,-31.6323,152.703
1053,NSW,Kew,-31.6393,152.734
1054,NSW,Killabakh,-31.7363,152.401
1055,NSW,Krambach,-32.0495,152.266
1056,NSW,Lake Cathie,-31.5703,152.826
1057,NSW,Lansdowne,-31.7837,152.533
1058,NSW,Laurieton,-31.6514,152.797
1059,NSW,Lemon Tree Passage,-32.7336,152.032
1060,NSW,Lorne,-31.6616,152.61
1061,NSW,Marlee,-31.7709,152.316
1062,NSW,Medowie,-32.7392,151.85399999999998
1063,NSW,Mitchells Island,-31.8971,152.611
1064,NSW,Moorland,-31.7706,152.65200000000002
1065,NSW,Mount George,-31.8817,152.18
1066,NSW,Nabiac,-32.0996,152.381
1067,NSW,Nelson Bay,-32.7214,152.14
1068,NSW,Nelson Bay Central,-32.7218,152.154
1069,NSW,North Haven,-31.6341,152.822
1070,NSW,Old Bar,-31.9722,152.588
1071,NSW,Pacific Palms,-32.3402,152.52100000000002
1072,NSW,Purfleet,-31.941,152.469
1073,NSW,Raymond Terrace,-32.7668,151.74
1074,NSW,Raymond Terrace Central,-32.7646,151.747
1075,NSW,Raymond Terrace East,-32.7627,151.767
1076,NSW,Salamander Bay,-32.7239,152.08
1077,NSW,Salt Ash,-32.7878,151.904
1078,NSW,Shoal Bay,-32.7281,152.174
1079,NSW,Stratford,-32.1174,151.939
1080,NSW,Stroud,-32.4037,151.965
1081,NSW,Stroud Road,-32.3464,151.931
1082,NSW,Tanilba Bay,-32.729,152.004
1083,NSW,Taree,-31.9097,152.463
1084,NSW,Taree North,-31.892,152.461
1085,NSW,Taree West,-31.9071,152.445
1086,NSW,Tea Gardens,-32.6678,152.158
1087,NSW,Tinonee,-31.9326,152.414
1088,NSW,Tuncurry,-32.1598,152.487
1089,NSW,Upper Lansdowne,-31.7062,152.468
1090,NSW,Wallarobba,-32.5045,151.713
1091,NSW,Wherrol Flat,-31.7835,152.22799999999998
1092,NSW,Williamtown,-32.8092,151.846
1093,NSW,Wingham,-31.8701,152.377
1094,NSW,Wingham West,-31.87,152.37
1095,NSW,Appin,-34.1978,150.78799999999998
1096,NSW,Austinmer,-34.3052,150.936
1097,NSW,Balgownie Central,-34.3889,150.88
1098,NSW,Bargo,-34.289,150.579
1099,NSW,Bellambi,-34.3652,150.917
1100,NSW,Bulli Central,-34.3346,150.91299999999998
1101,NSW,Bulli,-34.3268,150.912
1102,NSW,Buxton,-34.2482,150.548
1103,NSW,Camden,-34.0526,150.694
1104,NSW,Camden East,-34.0606,150.71200000000002
1105,NSW,Camden South,-34.0691,150.694
1106,NSW,Grasmere,-34.052,150.672
1107,NSW,Catherine Field,-33.993,150.765
1108,NSW,Cobbitty,-34.0159,150.686
1109,NSW,Corrimal,-34.3754,150.898
1110,NSW,Corrimal East,-34.3753,150.911
1111,NSW,Douglas Park,-34.1791,150.713
1112,NSW,Fairy Meadow,-34.3902,150.893
1113,NSW,Leppington,-33.9596,150.81
1114,NSW,Menangle Park,-34.1082,150.751
1115,NSW,Mount Hunter,-34.071,150.637
1116,NSW,Mount Ousley,-34.3991,150.89
1117,NSW,Narellan,-34.0417,150.733
1118,NSW,Oakdale,-34.0797,150.50799999999998
1119,NSW,Orangeville,-34.0347,150.572
1120,NSW,Picton,-34.17,150.613
1121,NSW,Rossmore,-33.9468,150.77200000000002
1122,NSW,Russell Vale,-34.3593,150.905
1123,NSW,Tahmoor,-34.2293,150.591
1124,NSW,Tarrawanna,-34.3803,150.889
1125,NSW,The Oaks,-34.0788,150.571
1126,NSW,Thirlmere,-34.2043,150.569
1127,NSW,Thirroul,-34.3169,150.918
1128,NSW,Thirroul East,-34.3172,150.922
1129,NSW,Towradgi,-34.389,150.90200000000002
1130,NSW,Warragamba,-33.8909,150.605
1131,NSW,Wilton,-34.2287,150.685
1132,NSW,Woonona,-34.3465,150.906
1133,NSW,Woonona Central,-34.3412,150.906
1134,NSW,Woonona East,-34.3515,150.916
1135,NSW,Yanderra,-34.3209,150.571
1136,NSW,Avalon,-33.635999999999996,151.329
1137,NSW,Barrenjoey,-33.6303,151.334
1138,NSW,Bayview,-33.6575,151.295
1139,NSW,Beacon Hill,-33.7534,151.262
1140,NSW,Bilgola Plateau,-33.6448,151.314
1141,NSW,Collaroy,-33.7281,151.299
1142,NSW,Collaroy Plateau,-33.7329,151.293
1143,NSW,Cromer East,-33.7381,151.284
1144,NSW,Cromer,-33.7378,151.274
1145,NSW,Dee Why,-33.7486,151.286
1146,NSW,Dee Why Central,-33.7543,151.29
1147,NSW,Elanora,-33.7027,151.284
1148,NSW,Narrabeen East,-33.7128,151.299
1149,NSW,Mona Vale,-33.6765,151.304
1150,NSW,Mona Vale Beach,-33.6782,151.315
1151,NSW,Narrabeen,-33.7203,151.298
1152,NSW,Narrabeen North,-33.7008,151.298
1153,NSW,Narraweena,-33.7493,151.273
1154,NSW,Newport,-33.6606,151.313
1155,NSW,Newport Beach,-33.6535,151.32299999999998
1156,NSW,Palm Beach,-33.6026,151.319
1157,NSW,Terrey Hills,-33.6854,151.22299999999998
1158,NSW,RSL Retirement Village,-33.7227,151.286
1159,NSW,Wheeler Heights,-33.7281,151.286
1160,NSW,Berkshire Park,-33.6769,150.781
1161,NSW,Bilpin,-33.498000000000005,150.512
1162,NSW,Blackheath,-33.6392,150.286
1163,NSW,Black Springs,-33.8463,149.74200000000002
1164,NSW,Burraga,-33.9482,149.53
1165,NSW,Castlereagh,-33.6675,150.67700000000002
1166,NSW,Cattai,-33.5588,150.907
1167,NSW,Colo Heights,-33.3728,150.739
1168,NSW,Kurrajong North,-33.5068,150.69799999999998
1169,NSW,Cranebrook,-33.7128,150.708
1170,NSW,Ebenezer,-33.5307,150.877
1171,NSW,Faulconbridge,-33.6858,150.549
1172,NSW,Freemans Reach,-33.5594,150.797
1173,NSW,Glossodia,-33.5342,150.766
1174,NSW,Grose Wold,-33.5957,150.666
1175,NSW,Hartley,-33.551,150.188
1176,NSW,Hazelbrook,-33.7269,150.459
1177,NSW,Hobartville,-33.6033,150.74200000000002
1178,NSW,Katoomba,-33.7195,150.314
1179,NSW,Katoomba North,-33.6992,150.316
1180,NSW,Katoomba Central,-33.7158,150.312
1181,NSW,Kurmond,-33.5499,150.69299999999998
1182,NSW,Kurrajong,-33.5555,150.662
1183,NSW,Kurrajong East,-33.510999999999996,150.778
1184,NSW,Lawson,-33.7216,150.428
1185,NSW,Leura,-33.7113,150.336
1186,NSW,Leura Central,-33.7139,150.344
1187,NSW,Llandilo,-33.7071,150.752
1188,NSW,McGraths Hill,-33.6156,150.835
1189,NSW,Maraylya,-33.5931,150.916
1190,NSW,Maroota,-33.4594,150.994
1191,NSW,Maroota South,-33.5234,150.944
1192,NSW,Medlow Bath,-33.6742,150.282
1193,NSW,Mount Victoria,-33.5916,150.254
1194,NSW,Mount Wilson,-33.5057,150.368
1195,NSW,Oakville,-33.6207,150.872
1196,NSW,Oberon,-33.7021,149.859
1197,NSW,O'Connell,-33.5245,149.72
1198,NSW,Pitt Town,-33.584,150.861
1199,NSW,Richmond,-33.5993,150.757
1200,NSW,North Richmond,-33.5809,150.717
1201,NSW,Rockley,-33.6923,149.563
1202,NSW,St Albans,-33.2946,150.971
1203,NSW,Springwood,-33.7018,150.562
1204,NSW,Springwood South,-33.7055,150.57299999999998
1205,NSW,Tennyson,-33.535,150.737
1206,NSW,Trunkey,-33.8222,149.329
1207,NSW,Valley Heights,-33.7039,150.58100000000002
1208,NSW,Vineyard East,-33.6481,150.858
1209,NSW,Warrimoo,-33.7273,150.599
1210,NSW,Wentworth Falls,-33.7144,150.373
1211,NSW,Wilberforce,-33.5585,150.839
1212,NSW,Windsor,-33.6092,150.817
1213,NSW,Windsor South,-33.6185,150.804
1214,NSW,Winmalee,-33.6751,150.615
1215,NSW,Woodford,-33.7341,150.47
1216,NSW,Yarramundi,-33.6359,150.66
1217,NSW,Annangrove,-33.6687,150.952
1218,NSW,Arcadia,-33.6231,151.05200000000002
1219,NSW,Baulkham Hills Central,-33.751999999999995,150.99
1220,NSW,The Hills,-33.7611,150.991
1221,NSW,Baulkham Hills North,-33.7524,151.0
1222,NSW,Castle Hill,-33.7282,151.005
1223,NSW,Castle Hill Central,-33.7272,150.999
1224,NSW,Hillside Central,-33.6055,150.97899999999998
1225,NSW,Crestwood,-33.7481,150.971
1226,NSW,Crestwood Central,-33.7441,150.975
1227,NSW,Galston,-33.648,151.045
1228,NSW,Samuel Gilbert,-33.7142,150.993
1229,NSW,Glenhaven,-33.701,151.004
1230,NSW,Glenorie,-33.5987,151.00799999999998
1231,NSW,Jasper Road,-33.7611,150.982
1232,NSW,Kellyville,-33.711999999999996,150.958
1233,NSW,Kenthurst,-33.6654,151.004
1234,NSW,Matthew Pearce,-33.7575,150.96200000000002
1235,NSW,Middle Dural,-33.6444,151.023
1236,NSW,Model Farms,-33.7704,150.972
1237,NSW,Mowll,-33.7271,151.024
1238,NSW,Muirfield,-33.7658,151.02200000000002
1239,NSW,Murray Farm,-33.7658,151.039
1240,NSW,Hopetoun,-33.7285,151.025
1241,NSW,Cherrybrook North,-33.719,151.03799999999998
1242,NSW,Rondelay,-33.7408,150.991
1243,NSW,Rouse Hill,-33.6791,150.92
1244,NSW,Thompsons Corner,-33.7459,151.05
1245,NSW,Beaumont Park,-32.9353,151.739
1246,NSW,Birmingham Gardens North,-32.889,151.694
1247,NSW,Hamilton North,-32.9175,151.734
1248,NSW,Carrington,-32.9122,151.765
1249,NSW,Cooks Hill,-32.9293,151.768
1250,NSW,Cooks Hill South,-32.9338,151.768
1251,NSW,The Junction,-32.9392,151.75799999999998
1252,NSW,Elermore Vale,-32.9149,151.666
1253,NSW,Fern Bay,-32.8723,151.795
1254,NSW,Georgetown,-32.908,151.732
1255,NSW,Hamilton,-32.924,151.744
1256,NSW,Hamilton South,-32.9341,151.754
1257,NSW,Islington,-32.9115,151.744
1258,NSW,Jesmond North,-32.9014,151.696
1259,NSW,Lambton,-32.9147,151.709
1260,NSW,Lambton East,-32.9175,151.722
1261,NSW,New Lambton,-32.9249,151.716
1262,NSW,Maryland,-32.882,151.659
1263,NSW,Mayfield,-32.898,151.74200000000002
1264,NSW,Mayfield East,-32.8959,151.748
1265,NSW,Mayfield South,-32.9,151.734
1266,NSW,Mayfield West,-32.8894,151.731
1267,NSW,Newcastle City,-32.9304,151.77700000000002
1268,NSW,Pittown,-32.9,151.664
1269,NSW,Plattsburg,-32.8921,151.668
1270,NSW,Shortland,-32.8827,151.696
1271,NSW,Stockton,-32.9121,151.783
1272,NSW,Tighes Hill,-32.9082,151.752
1273,NSW,Wallsend South,-32.9206,151.675
1274,NSW,Waratah,-32.9058,151.722
1275,NSW,Waratah West,-32.8993,151.716
1276,NSW,Silver Ridge,-32.9067,151.683
1277,NSW,Arding,-30.5664,151.528
1278,NSW,Armidale,-30.5146,151.666
1279,NSW,Newling,-30.5231,151.67700000000002
1280,NSW,Armidale South,-30.5193,151.664
1281,NSW,Madgwick,-30.4961,151.641
1282,NSW,Armidale West,-30.5109,151.651
1283,NSW,Ashford,-29.3215,151.095
1284,NSW,Attunga,-30.9302,150.847
1285,NSW,Ben Lomond,-30.0172,151.661
1286,NSW,Ben Venue,-30.5031,151.674
1287,NSW,Bendemeer,-30.8867,151.151
1288,NSW,Black Mountain,-30.3086,151.658
1289,NSW,Bonshaw,-29.0483,151.276
1290,NSW,Bundarra,-30.1679,151.076
1291,NSW,Calala,-31.1288,150.94
1292,NSW,Dangarsleigh,-30.6028,151.679
1293,NSW,Deepwater,-29.4434,151.84799999999998
1294,NSW,Dungowan,-31.2234,151.138
1295,NSW,Duri,-31.2227,150.836
1296,NSW,Ebor,-30.4029,152.35
1297,NSW,Elsmore,-29.8029,151.275
1298,NSW,Emmaville,-29.4471,151.601
1299,NSW,Gilgai,-29.8542,151.118
1300,NSW,Glen Innes,-29.7356,151.739
1301,NSW,Glen Innes West,-29.7379,151.73
1302,NSW,Glencoe,-29.9275,151.725
1303,NSW,Guyra,-30.2225,151.67600000000002
1304,NSW,Hallsville,-31.0036,150.876
1305,NSW,Hillvue,-31.1304,150.92
1306,NSW,Inverell,-29.7741,151.115
1307,NSW,Inverell East,-29.7732,151.122
1308,NSW,Jennings,-28.9273,151.934
1309,NSW,Kentucky,-30.7612,151.44899999999998
1310,NSW,Kingstown,-30.5074,151.115
1311,NSW,Kootingal,-31.0541,151.054
1312,NSW,Loomberah,-31.235,151.02100000000002
1313,NSW,Mingoola,-29.0052,151.542
1314,NSW,Moonbi,-31.019000000000002,151.075
1315,NSW,Moore Creek,-30.9953,150.923
1316,NSW,Nemingha,-31.1272,151.004
1317,NSW,Niangala,-31.298000000000002,151.408
1318,NSW,Nowendoc,-31.514,151.716
1319,NSW,Nundle,-31.4599,151.127
1320,NSW,Oxley Vale,-31.059,150.895
1321,NSW,Peel High,-31.1,150.893
1322,NSW,Red Range,-29.7773,151.895
1323,NSW,Rocky River,-30.6131,151.491
1324,NSW,Ross Hill,-29.7708,151.10299999999998
1325,NSW,Somerton,-30.9384,150.642
1326,NSW,Tamworth,-31.0892,150.93200000000002
1327,NSW,Tamworth South,-31.1045,150.917
1328,NSW,Tamworth East,-31.0847,150.936
1329,NSW,Tamworth West,-31.092,150.921
1330,NSW,Tenterfield,-29.0512,152.019
1331,NSW,Timbumburi,-31.2037,150.916
1332,NSW,Tingha,-29.9584,151.213
1333,NSW,Uralla,-30.6419,151.495
1334,NSW,Walcha,-30.9803,151.60299999999998
1335,NSW,Westdale,-31.0945,150.873
1336,NSW,Wollomombi,-30.5176,152.054
1337,NSW,Woolbrook,-30.9695,151.342
1338,NSW,Woolomin,-31.3019,151.148
1339,NSW,Yarrowitch,-31.2508,151.94799999999998
1340,NSW,Artarmon,-33.8069,151.186
1341,NSW,Artarmon Central,-33.811,151.186
1342,NSW,Cammeray,-33.8209,151.211
1343,NSW,Castle Cove,-33.7831,151.202
1344,NSW,Castlecrag,-33.8034,151.213
1345,NSW,Cremorne,-33.8285,151.225
1346,NSW,Cremorne South,-33.8353,151.222
1347,NSW,Crows Nest,-33.8303,151.204
1348,NSW,Crows Nest East,-33.8291,151.209
1349,NSW,Kirribilli,-33.8486,151.214
1350,NSW,McMahons Point,-33.8431,151.205
1351,NSW,Naremburn,-33.8195,151.201
1352,NSW,Neutral Bay,-33.8325,151.22
1353,NSW,Neutral Bay West,-33.8354,151.215
1354,NSW,Northbridge,-33.8104,151.21
1355,NSW,Northbridge East,-33.8122,151.219
1356,NSW,North Sydney,-33.835,151.204
1357,NSW,Roseville South,-33.7866,151.19
1358,NSW,St Leonards,-33.8218,151.192
1359,NSW,Waverton,-33.8377,151.196
1360,NSW,Willoughby,-33.8035,151.2
1361,NSW,Willoughby North,-33.7954,151.205
1362,NSW,Wollstonecraft,-33.8232,151.187
1363,NSW,Alstonville,-28.8399,153.434
1364,NSW,Ballina,-28.8676,153.565
1365,NSW,Ballina East,-28.8508,153.58700000000002
1366,NSW,Ballina West,-28.8663,153.534
1367,NSW,Baryulgil,-29.2235,152.606
1368,NSW,Bentley,-28.7519,153.08100000000002
1369,NSW,Bonalbo,-28.7367,152.622
1370,NSW,Broadwater,-29.0137,153.434
1371,NSW,Brooms Head,-29.6091,153.338
1372,NSW,Casino,-28.8659,153.048
1373,NSW,Casino North,-28.8455,153.043
1374,NSW,Cawongla,-28.5997,153.099
1375,NSW,Chatsworth Island,-29.388,153.231
1376,NSW,Clovass,-28.8748,153.16899999999998
1377,NSW,Copmanhurst,-29.5864,152.776
1378,NSW,Coraki,-28.9921,153.283
1379,NSW,Coramba,-30.2215,153.011
1380,NSW,Corindi,-30.0221,153.194
1381,NSW,Coutts Crossing,-29.8322,152.89
1382,NSW,Dorrigo,-30.3393,152.71200000000002
1383,NSW,Drake,-28.9286,152.375
1384,NSW,Empire Vale,-28.9127,153.509
1385,NSW,Evans Head,-29.1125,153.42600000000002
1386,NSW,Fairy Hill,-28.7751,152.989
1387,NSW,Glenreagh,-30.0528,152.977
1388,NSW,Grafton,-29.6819,152.933
1389,NSW,Grafton East,-29.6891,152.937
1390,NSW,Grafton North,-29.671999999999997,152.936
1391,NSW,South Grafton Central,-29.7055,152.936
1392,NSW,Grevillia,-28.44,152.827
1393,NSW,Gulmarrad,-29.489,153.234
1394,NSW,Harwood Island,-29.4255,153.24
1395,NSW,Iluka,-29.4059,153.351
1396,NSW,Junction Hill,-29.6441,152.921
1397,NSW,Korora,-30.254,153.131
1398,NSW,Kyogle,-28.6217,153.004
1399,NSW,Kyogle South,-28.6258,153.002
1400,NSW,Lawrence,-29.4912,153.1
1401,NSW,Leeville,-28.9201,153.007
1402,NSW,Legume,-28.406,152.30700000000002
1403,NSW,Liston,-28.6469,152.085
1404,NSW,Lowanna,-30.2063,152.899
1405,NSW,Maclean,-29.4567,153.197
1406,NSW,Mallanganee,-28.9062,152.72
1407,NSW,Meerschaum Vale,-28.8465,153.439
1408,NSW,Moonee Beach,-30.2094,153.157
1409,NSW,Nana Glen,-30.136,153.005
1410,NSW,Palmers Island,-29.4196,153.28799999999998
1411,NSW,Pimlico,-28.9089,153.485
1412,NSW,Rappville,-29.086,152.955
1413,NSW,Red Rock,-29.9861,153.226
1414,NSW,Rous,-28.8743,153.425
1415,NSW,Casino South,-28.8728,153.045
1416,NSW,Tabulam,-28.891,152.567
1417,NSW,Tucabia,-29.660999999999998,153.106
1418,NSW,Dundurrabin,-30.19,152.542
1419,NSW,Ulmarra,-29.6292,153.031
1420,NSW,Urbenville,-28.4733,152.545
1421,NSW,South Grafton,-29.7096,152.937
1422,NSW,Wardell,-28.9526,153.465
1423,NSW,Casino West,-28.855,153.037
1424,NSW,Whiporie,-29.2831,152.989
1425,NSW,Wiangaree,-28.5103,152.964
1426,NSW,Wollongbar,-28.8276,153.42
1427,NSW,Woombah,-29.3601,153.283
1428,NSW,Woodburn,-29.0714,153.342
1429,NSW,Woodenbong,-28.3894,152.61
1430,NSW,Woolgoolga,-30.1128,153.196
1431,NSW,Wooli,-29.8668,153.266
1432,NSW,Yamba,-29.4406,153.35299999999998
1433,NSW,Alectown,-32.9328,148.24
1434,NSW,Ballimore,-32.1937,148.899
1435,NSW,Bedgerabong,-33.3623,147.678
1436,NSW,Billimari,-33.6809,148.616
1437,NSW,Bogan Gate,-33.1055,147.798
1438,NSW,Borenore,-33.251,148.984
1439,NSW,Bourke,-30.0944,145.94899999999998
1440,NSW,Brewarrina,-29.9605,146.857
1441,NSW,Canowindra,-33.5577,148.671
1442,NSW,Cargo,-33.4278,148.808
1443,NSW,Collie,-31.6654,148.297
1444,NSW,Coolabah,-31.0247,146.715
1445,NSW,Coonamble,-30.9558,148.392
1446,NSW,Cudal,-33.2874,148.74
1447,NSW,Cumnock,-32.9291,148.749
1448,NSW,Curban,-31.5367,148.643
1449,NSW,Dubbo,-32.2471,148.605
1450,NSW,Dubbo Grove,-32.2686,148.612
1451,NSW,Dubbo North,-32.2408,148.616
1452,NSW,Dubbo South,-32.26,148.611
1453,NSW,Dubbo West,-32.2512,148.589
1454,NSW,Eugowra,-33.4237,148.369
1455,NSW,Eumungerie,-31.951,148.621
1456,NSW,Fifield,-32.8073,147.459
1457,NSW,Forbes,-33.3857,148.00799999999998
1458,NSW,Forbes North,-33.3629,148.012
1459,NSW,Forbes South,-33.3917,148.012
1460,NSW,Geurie,-32.3961,148.829
1461,NSW,Gilgandra,-31.7083,148.661
1462,NSW,Gooloogong,-33.6134,148.433
1463,NSW,Gulargambone,-31.3338,148.474
1464,NSW,Manildra,-33.1838,148.692
1465,NSW,Molong,-33.0949,148.866
1466,NSW,Mullion Creek,-33.1391,149.121
1467,NSW,Mumbil,-32.7219,149.05100000000002
1468,NSW,Narromine,-32.2299,148.24200000000002
1469,NSW,Nashdale,-33.2941,149.012
1470,NSW,Nevertire,-31.8372,147.719
1471,NSW,Nyngan,-31.5612,147.189
1472,NSW,Orana Heights,-32.2533,148.628
1473,NSW,Parkes,-33.1355,148.173
1474,NSW,Parkes East,-33.1354,148.19
1475,NSW,Parkes North,-33.1303,148.18
1476,NSW,Peak Hill,-32.7287,148.192
1477,NSW,Quambone,-30.9314,147.872
1478,NSW,Parkes South,-33.1478,148.173
1479,NSW,Parkes West,-33.1351,148.17
1480,NSW,Stuart Town,-32.8023,149.069
1481,NSW,Tomingley,-32.5678,148.222
1482,NSW,Tooraweenah,-31.4356,148.911
1483,NSW,Trangie,-32.0326,147.97899999999998
1484,NSW,Trundle,-32.9255,147.71
1485,NSW,Tullamore,-32.6356,147.565
1486,NSW,Warren,-31.7049,147.83700000000002
1487,NSW,Wellington,-32.5576,148.942
1488,NSW,Wellington East,-32.5551,148.952
1489,NSW,Wongarbon,-32.3338,148.759
1490,NSW,Yeoval,-32.755,148.65
1491,NSW,Macarthur High,-33.8128,151.013
1492,NSW,Darcy Road,-33.8033,150.97299999999998
1493,NSW,Ermington Central,-33.8165,151.05700000000002
1494,NSW,Ermington West,-33.8061,151.058
1495,NSW,Girraween,-33.7991,150.951
1496,NSW,Rowland Hassall,-33.8175,151.011
1497,NSW,Lake Parramatta,-33.7961,151.004
1498,NSW,Merrylands North,-33.8376,150.989
1499,NSW,Northmead,-33.7867,150.991
1500,NSW,Northmead East,-33.7885,151.0
1501,NSW,Parramatta East,-33.8059,151.018
1502,NSW,Parramatta North,-33.804,151.005
1503,NSW,Pendle Hill North,-33.7972,150.963
1504,NSW,Pitt Row,-33.8248,150.99200000000002
1505,NSW,Rosehill,-33.8243,151.019
1506,NSW,Rydalmere,-33.8142,151.045
1507,NSW,Dundas,-33.8038,151.037
1508,NSW,Toongabbie East,-33.7975,150.97899999999998
1509,NSW,Wentworthville,-33.8142,150.969
1510,NSW,Wentworthville Central,-33.8064,150.97299999999998
1511,NSW,South Wentworthville Central,-33.8187,150.967
1512,NSW,Westmead Central,-33.8054,150.988
1513,NSW,Winston Heights,-33.7754,150.968
1514,NSW,Winston Hills,-33.7735,150.981
1515,NSW,Winston Hills Central,-33.7776,150.97299999999998
1516,NSW,Bondi,-33.8931,151.265
1517,NSW,Bondi Beach,-33.8885,151.278
1518,NSW,Waverley North,-33.8969,151.256
1519,NSW,Bondi North,-33.8844,151.276
1520,NSW,Bronte,-33.9008,151.262
1521,NSW,Dover Heights,-33.8788,151.27700000000002
1522,NSW,Clovelly,-33.9071,151.26
1523,NSW,Clovelly North,-33.908,151.259
1524,NSW,Coogee Beach,-33.9191,151.255
1525,NSW,Coogee,-33.9222,151.253
1526,NSW,Coogee Central,-33.9199,151.253
1527,NSW,Coogee South,-33.9334,151.254
1528,NSW,Randwick,-33.91,151.243
1529,NSW,Daceyville,-33.9291,151.22799999999998
1530,NSW,Kensington,-33.9098,151.225
1531,NSW,Kensington Park,-33.9209,151.224
1532,NSW,Kensington West,-33.9098,151.219
1533,NSW,Randwick Central,-33.9248,151.239
1534,NSW,Kingsford South,-33.9266,151.232
1535,NSW,Randwick East,-33.9115,151.243
1536,NSW,Clovelly Beach,-33.915,151.267
1537,NSW,Randwick North,-33.9057,151.247
1538,NSW,Randwick South,-33.9218,151.24
1539,NSW,The Spot,-33.9182,151.245
1540,NSW,Bossley Park,-33.8594,150.88299999999998
1541,NSW,Canley Heights,-33.884,150.923
1542,NSW,Canley Vale,-33.8866,150.937
1543,NSW,Fairfield Heights,-33.867,150.94799999999998
1544,NSW,Fairfield South,-33.8767,150.941
1545,NSW,Fairfield West,-33.8686,150.925
1546,NSW,Fairfield West Central,-33.8745,150.93
1547,NSW,Greystanes,-33.8282,150.942
1548,NSW,Greystanes North,-33.8148,150.942
1549,NSW,Guildford West,-33.8471,150.967
1550,NSW,Greystanes Central,-33.8341,150.951
1551,NSW,Horsley Park,-33.8412,150.85299999999998
1552,NSW,Lansvale,-33.8915,150.953
1553,NSW,Greystanes North East,-33.8128,150.952
1554,NSW,Bossley Park East,-33.867,150.89
1555,NSW,Greystanes East,-33.8203,150.959
1556,NSW,Merrylands West,-33.8363,150.96
1557,NSW,Smithfield,-33.8542,150.934
1558,NSW,Smithfield East,-33.8564,150.939
1559,NSW,Smithfield West,-33.8573,150.917
1560,NSW,Villawood,-33.8855,150.97
1561,NSW,Villawood North,-33.8766,150.972
1562,NSW,Greystanes South,-33.8337,150.94
1563,NSW,Wetherill Park,-33.8545,150.906
1564,NSW,Yennora,-33.867,150.971
1565,NSW,Auburn,-33.8538,151.032
1566,NSW,Auburn East,-33.8652,151.025
1567,NSW,Auburn North,-33.8433,151.034
1568,NSW,Auburn West,-33.8603,151.02
1569,NSW,Berala,-33.8705,151.028
1570,NSW,Birrong,-33.8958,151.02
1571,NSW,Blaxcell,-33.8579,151.007
1572,NSW,Chester Hill,-33.8848,151.001
1573,NSW,Chester Hill North,-33.8737,150.996
1574,NSW,Fowler Road,-33.8409,150.976
1575,NSW,Granville,-33.8345,151.005
1576,NSW,Granville North,-33.8294,151.012
1577,NSW,Granville South,-33.8488,150.996
1578,NSW,Guildford,-33.8554,150.981
1579,NSW,Guildford East,-33.8547,150.988
1580,NSW,Berala South,-33.8783,151.029
1581,NSW,Lidcombe,-33.8606,151.047
1582,NSW,Lidcombe South,-33.8654,151.045
1583,NSW,Merrylands,-33.8433,150.999
1584,NSW,Merrylands East,-33.8421,150.989
1585,NSW,Guildford South,-33.8609,150.996
1586,NSW,Regents Park,-33.8857,151.023
1587,NSW,Auburn Central,-33.856,151.028
1588,NSW,Sefton,-33.8872,151.009
1589,NSW,Silverwater,-33.8416,151.03799999999998
1590,NSW,Villawood East,-33.8895,150.986
1591,NSW,Bangalow,-28.6859,153.526
1592,NSW,Banora Point,-28.2225,153.545
1593,NSW,Bexhill,-28.7661,153.346
1594,NSW,Bilambil,-28.224,153.468
1595,NSW,Billinudgel,-28.5045,153.525
1596,NSW,Bogangar,-28.3389,153.572
1597,NSW,Murwillumbah West,-28.333000000000002,153.359
1598,NSW,Brunswick Heads,-28.5412,153.55100000000002
1599,NSW,Burringbar,-28.4358,153.467
1600,NSW,Byron Bay,-28.6475,153.614
1601,NSW,Caniaba,-28.8376,153.205
1602,NSW,Chillingham,-28.3136,153.27700000000002
1603,NSW,Chinderah,-28.228,153.55700000000002
1604,NSW,Clunes,-28.7254,153.409
1605,NSW,Condong,-28.3138,153.436
1606,NSW,Coorabell,-28.6263,153.488
1607,NSW,Crabbes Creek,-28.4572,153.497
1608,NSW,Crystal Creek,-28.3072,153.30700000000002
1609,NSW,Dungay,-28.2853,153.376
1610,NSW,Dunoon,-28.6869,153.316
1611,NSW,Durrumbul,-28.5232,153.445
1612,NSW,Eltham,-28.7633,153.408
1613,NSW,Eureka,-28.6878,153.439
1614,NSW,Ewingsdale,-28.6554,153.56799999999998
1615,NSW,Federal,-28.6503,153.455
1616,NSW,Fernleigh,-28.7675,153.499
1617,NSW,Goolmangar,-28.7461,153.225
1618,NSW,Goonellabah,-28.8183,153.322
1619,NSW,Goonellabah South,-28.8247,153.326
1620,NSW,Hastings Point,-28.3562,153.57299999999998
1621,NSW,Jiggi,-28.678,153.18200000000002
1622,NSW,Kingscliff,-28.2569,153.577
1623,NSW,Kunghur,-28.4703,153.253
1624,NSW,Lennox Head,-28.7943,153.591
1625,NSW,Lismore,-28.8108,153.278
1626,NSW,Lismore Central,-28.8051,153.285
1627,NSW,Lismore East,-28.8214,153.296
1628,NSW,Lismore Heights,-28.8058,153.3
1629,NSW,Lismore Hospital,-28.8095,153.291
1630,NSW,Lismore North,-28.7987,153.278
1631,NSW,Lismore South,-28.8096,153.262
1632,NSW,Mcleans Ridges,-28.7974,153.384
1633,NSW,Mullumbimby,-28.5486,153.496
1634,NSW,Murwillumbah East,-28.3243,153.405
1635,NSW,Murwillumbah,-28.3297,153.391
1636,NSW,Newrybar,-28.7178,153.532
1637,NSW,Nimbin,-28.594,153.22
1638,NSW,Pottsville Beach,-28.3776,153.56799999999998
1639,NSW,Rosebank,-28.6802,153.39
1640,NSW,Stokers Siding,-28.3939,153.404
1641,NSW,Terranora,-28.2407,153.498
1642,NSW,The Channon,-28.673000000000002,153.279
1643,NSW,Tintenbar,-28.795,153.501
1644,NSW,Tregeagle,-28.8578,153.355
1645,NSW,Modanville,-28.7314,153.298
1646,NSW,Tweed Heads,-28.1756,153.537
1647,NSW,Tweed Heads South,-28.1952,153.54
1648,NSW,Tyalgum,-28.3545,153.205
1649,NSW,Uki,-28.4144,153.335
1650,NSW,Wilsons Creek,-28.5715,153.42600000000002
1651,NSW,Wyrallah,-28.8911,153.305
1652,NSW,Tharbogang,-34.2606,145.984
1653,NSW,Barellan,-34.2878,146.572
1654,NSW,Barmedman,-34.1457,147.387
1655,NSW,Beelbangera,-34.253,146.101
1656,NSW,Broken Hill Central,-31.947,141.455
1657,NSW,Broken Hill East,-31.9446,141.471
1658,NSW,Broken Hill Alma,-31.982,141.464
1659,NSW,Carrathool,-34.4084,145.433
1660,NSW,Cobar,-31.5011,145.836
1661,NSW,Coleambally,-34.8052,145.884
1662,NSW,Condobolin,-33.0845,147.151
1663,NSW,Darlington Point,-34.5685,145.999
1664,NSW,Griffith Driver,-34.282,146.07
1665,NSW,Emery,-35.0026,145.975
1666,NSW,Euabalong,-33.0553,146.39700000000002
1667,NSW,Broken Hill Excelsior,-31.9606,141.44
1668,NSW,Goolgowi,-33.9769,145.709
1669,NSW,Leeton South,-34.5632,146.41299999999998
1670,NSW,Griffith,-34.2864,146.041
1671,NSW,Griffith North,-34.2803,146.048
1672,NSW,Griffith West,-34.2916,146.041
1673,NSW,Hanwood,-34.33,146.042
1674,NSW,Hay,-34.5057,144.841
1675,NSW,Hermidale,-31.5501,146.726
1676,NSW,Hillston,-33.4798,145.54
1677,NSW,Lake Cargelligo,-33.2942,146.374
1678,NSW,Lake Wyangan,-34.2482,146.033
1679,NSW,Leeton,-34.5537,146.404
1680,NSW,Leeton North,-34.5472,146.406
1681,NSW,Menindee,-32.3929,142.418
1682,NSW,Broken Hill North,-31.9425,141.46
1683,NSW,Narrandera,-34.7494,146.555
1684,NSW,Narrandera East,-34.7435,146.566
1685,NSW,Nymagee,-32.0654,146.314
1686,NSW,Leeton Parkview,-34.5624,146.39700000000002
1687,NSW,Rankins Springs,-33.8418,146.262
1688,NSW,Tallimba,-33.992,146.876
1689,NSW,Tottenham,-32.2581,147.351
1690,NSW,Tullibigeal,-33.4225,146.724
1691,NSW,Ungarie,-33.6367,146.977
1692,NSW,Wamoon,-34.5259,146.33100000000002
1693,NSW,Weethalle,-33.8801,146.619
1694,NSW,West Wyalong,-33.9246,147.20600000000002
1695,NSW,Whitton,-34.5193,146.181
1696,NSW,Wilcannia,-31.5585,143.378
1697,NSW,Wyalong,-33.926,147.24200000000002
1698,NSW,Yanco,-34.5984,146.411
1699,NSW,Yenda,-34.2529,146.19799999999998
1700,NSW,Yoogali,-34.2999,146.086
1701,NSW,Avoca Beach,-33.471,151.431
1702,NSW,Booker Bay,-33.5155,151.347
1703,NSW,Copacabana,-33.4842,151.437
1704,NSW,Davistown,-33.4862,151.361
1705,NSW,Empire Bay,-33.5041,151.363
1706,NSW,Erina,-33.4406,151.381
1708,NSW,Ettalong,-33.5137,151.332
1709,NSW,Ettalong West,-33.503,151.321
1710,NSW,Gosford,-33.4285,151.343
1711,NSW,Gosford East,-33.4369,151.349
1712,NSW,Henry Kendall,-33.4215,151.334
1713,NSW,Kariong,-33.4412,151.29
1714,NSW,Kincumber,-33.469,151.394
1715,NSW,Mangrove Mountain,-33.3006,151.192
1716,NSW,Mooney Mooney,-33.5235,151.204
1717,NSW,Mount White,-33.4558,151.19799999999998
1718,NSW,Niagara Park,-33.4379,151.439
1719,NSW,Ocean Beach,-33.5245,151.315
1720,NSW,Peats Ridge,-33.3257,151.232
1721,NSW,Point Clare,-33.4439,151.328
1722,NSW,Pretty Beach,-33.5254,151.356
1723,NSW,Saratoga,-33.4749,151.35
1724,NSW,Somersby,-33.3584,151.291
1725,NSW,Spencer,-33.4593,151.14700000000002
1726,NSW,Springfield,-33.4294,151.369
1727,NSW,Terrigal,-33.4425,151.438
1728,NSW,Umina Central,-33.5056,151.308
1729,NSW,Umina Mall,-33.5145,151.31799999999998
1730,NSW,Valley View,-33.4002,151.362
1731,NSW,Woy Woy,-33.4925,151.325
1732,NSW,Woy Woy South,-33.4958,151.309
1733,NSW,Wyoming,-33.409,151.356
1734,NSW,Bexley East,-33.9467,151.128
1735,NSW,Turrella,-33.9319,151.145
1736,NSW,Arncliffe West,-33.9374,151.138
1737,NSW,Bardwell Park,-33.9338,151.125
1738,NSW,Belmore South,-33.9244,151.092
1739,NSW,Beverly Hills,-33.9492,151.083
1740,NSW,Beverly Hills South,-33.9528,151.085
1741,NSW,Bexley,-33.9515,151.125
1742,NSW,Bexley North,-33.9407,151.121
1743,NSW,Bexley West,-33.9522,151.114
1744,NSW,Canterbury South,-33.9175,151.116
1745,NSW,Carlton,-33.9624,151.124
1746,NSW,Clemton Park,-33.9295,151.109
1747,NSW,Kingsgrove North,-33.9338,151.096
1748,NSW,Earlwood Central,-33.9281,151.127
1749,NSW,Earlwood South,-33.9283,151.124
1750,NSW,North Bexley North,-33.9383,151.109
1751,NSW,Hurstville,-33.9642,151.102
1752,NSW,Hurstville East,-33.9641,151.111
1753,NSW,Hurstville North,-33.9544,151.096
1754,NSW,Kingsgrove,-33.9401,151.10299999999998
1755,NSW,Kingsgrove South,-33.9494,151.102
1756,NSW,Mccallums Hill,-33.9352,151.085
1757,NSW,Beverly Hills Central,-33.946999999999996,151.079
1758,NSW,Rockdale West,-33.9504,151.136
1759,NSW,North Earlwood,-33.9182,151.123
1760,NSW,Undercliffe,-33.9244,151.139
1761,NSW,Adamstown Heights,-32.9464,151.707
1762,NSW,Adamstown North,-32.9311,151.72799999999998
1763,NSW,Belmont,-33.0368,151.66299999999998
1764,NSW,Belmont Central,-33.0306,151.66299999999998
1765,NSW,Belmont North,-33.0195,151.66899999999998
1766,NSW,Belmont West,-33.0263,151.66
1767,NSW,Blacksmiths,-33.0722,151.654
1768,NSW,Caves Beach,-33.1036,151.639
1769,NSW,Charlestown,-32.9652,151.697
1770,NSW,Charlestown East,-32.9707,151.705
1771,NSW,Charlestown South,-32.9679,151.689
1772,NSW,Dudley,-32.9887,151.717
1773,NSW,Floraville,-33.0149,151.664
1774,NSW,Gateshead,-32.9834,151.689
1775,NSW,Jewells,-33.0154,151.687
1776,NSW,Kahibah,-32.9645,151.71200000000002
1777,NSW,Kotara East,-32.9381,151.705
1778,NSW,Kotara South,-32.9459,151.695
1779,NSW,Marks Point,-33.0575,151.65
1780,NSW,Merewether,-32.9378,151.752
1781,NSW,Merewether Heights,-32.9469,151.739
1782,NSW,Merewether South,-32.9485,151.754
1783,NSW,Adamstown South,-32.9373,151.726
1784,NSW,New Lambton Central,-32.9266,151.714
1785,NSW,New Lambton South,-32.9314,151.718
1786,NSW,Nords Wharf,-33.1336,151.605
1787,NSW,Redhead,-33.0114,151.71200000000002
1788,NSW,Swansea,-33.0836,151.636
1789,NSW,Whitebridge,-32.9723,151.713
1790,NSW,Windale,-32.9933,151.68200000000002
1791,NSW,Annandale,-33.8858,151.17
1792,NSW,Annandale North,-33.878,151.172
1793,NSW,Rozelle East,-33.8633,151.178
1794,NSW,Balmain,-33.8577,151.171
1795,NSW,Balmain East,-33.8558,151.19299999999998
1796,NSW,Birchgrove,-33.8533,151.17700000000002
1797,NSW,Newtown South,-33.9058,151.17600000000002
1798,NSW,Camperdown,-33.8874,151.175
1799,NSW,Camperdown South,-33.8956,151.178
1800,NSW,Dobroyd Point,-33.8742,151.14
1801,NSW,Dulwich Hill,-33.9035,151.144
1802,NSW,Enmore,-33.9028,151.173
1803,NSW,Forest Lodge,-33.8821,151.18200000000002
1804,NSW,Balmain Central,-33.859,151.184
1805,NSW,Glebe,-33.8807,151.187
1806,NSW,Glebe East,-33.8837,151.191
1807,NSW,Glebe North,-33.8754,151.188
1808,NSW,Haberfield,-33.8801,151.139
1809,NSW,Haberfield West,-33.8795,151.135
1810,NSW,Leichhardt West,-33.8866,151.14700000000002
1811,NSW,Leichhardt,-33.8833,151.157
1812,NSW,Leichhardt East,-33.8795,151.159
1813,NSW,Leichhardt South,-33.8846,151.161
1814,NSW,Lewisham,-33.8962,151.148
1815,NSW,Lilyfield,-33.8723,151.159
1816,NSW,Lilyfield North,-33.869,151.167
1817,NSW,Lord Howe Island,-31.5625,159.088
1818,NSW,Millers Point,-33.8589,151.208
1819,NSW,Marrickville North,-33.9023,151.155
1820,NSW,Petersham,-33.8957,151.158
1821,NSW,Petersham East,-33.8896,151.159
1822,NSW,Pyrmont,-33.8679,151.192
1823,NSW,Rozelle,-33.8632,151.17
1824,NSW,Stanmore,-33.8966,151.168
1825,NSW,Stanmore North,-33.8909,151.16299999999998
1826,NSW,Glebe West,-33.8759,151.181
1827,NSW,Ultimo,-33.8813,151.2
1828,NSW,Albion Park South,-34.5756,150.774
1829,NSW,Albion Park Rail,-34.5682,150.798
1830,NSW,Berrima,-34.4865,150.339
1831,NSW,Berry,-34.7769,150.691
1832,NSW,Bomaderry,-34.8486,150.608
1833,NSW,Bowral,-34.4824,150.42
1834,NSW,Bowral South,-34.4889,150.424
1835,NSW,Burrawang,-34.5928,150.516
1836,NSW,Gerringong,-34.7461,150.828
1837,NSW,Gerroa,-34.7704,150.817
1838,NSW,Glenquarry,-34.5223,150.484
1839,NSW,Hill Top,-34.3536,150.488
1840,NSW,Jamberoo,-34.6443,150.773
1841,NSW,Kiama,-34.6744,150.857
1842,NSW,Kiama Downs,-34.6433,150.845
1843,NSW,Lake Illawarra,-34.5415,150.851
1844,NSW,Lakelands,-34.5048,150.796
1845,NSW,Minnamurra,-34.6251,150.85299999999998
1846,NSW,Mittagong,-34.4484,150.444
1847,NSW,Mittagong South,-34.4556,150.44799999999998
1848,NSW,Moss Vale,-34.5501,150.366
1849,NSW,Moss Vale Central,-34.5504,150.373
1850,NSW,Mount Brown,-34.5158,150.785
1851,NSW,Mount Warrigal,-34.554,150.845
1852,NSW,Oak Flats,-34.563,150.817
1853,NSW,Robertson,-34.5891,150.593
1854,NSW,Shellharbour,-34.5784,150.865
1855,NSW,Shoalhaven Heads,-34.8487,150.74200000000002
1856,NSW,Warilla South,-34.5642,150.858
1857,NSW,Warilla North,-34.5472,150.852
1858,NSW,Werri Beach,-34.7374,150.833
1859,NSW,Yerrinbool,-34.3697,150.542
1860,NSW,Allambie,-33.7708,151.263
1861,NSW,Allambie Heights,-33.7665,151.249
1862,NSW,Balgowlah,-33.795,151.267
1863,NSW,Balgowlah Heights,-33.8055,151.25799999999998
1864,NSW,Beauty Point,-33.8118,151.243
1865,NSW,Brookvale,-33.7614,151.27100000000002
1866,NSW,Curl Curl,-33.7727,151.286
1867,NSW,Fairlight,-33.7953,151.276
1868,NSW,Freshwater,-33.7806,151.29
1869,NSW,Harbord,-33.779,151.283
1870,NSW,Manly,-33.7998,151.287
1871,NSW,Manly Central,-33.7952,151.286
1872,NSW,Manly Vale,-33.782,151.268
1873,NSW,Manly West,-33.792,151.269
1874,NSW,Middle Harbour,-33.8224,151.233
1875,NSW,Mosman,-33.8294,151.244
1876,NSW,Mosman Bay,-33.8334,151.24
1877,NSW,North Balgowlah,-33.7826,151.247
1878,NSW,Queenscliff,-33.7859,151.28799999999998
1879,NSW,Seaforth,-33.7937,151.251
1880,NSW,Seaforth East,-33.7959,151.255
1881,NSW,Spit Junction,-33.8263,151.241
1882,NSW,Wingala,-33.7645,151.289
1883,NSW,Surry Hills South,-33.8905,151.216
1884,NSW,Darlinghurst East,-33.8787,151.22299999999998
1885,NSW,Bellevue Hill,-33.8867,151.26
1886,NSW,Ultimo East,-33.8848,151.19799999999998
1887,NSW,Darling Point,-33.8747,151.236
1888,NSW,Vaucluse East,-33.8577,151.279
1889,NSW,Double Bay,-33.8748,151.241
1890,NSW,Surry Hills West,-33.8862,151.208
1891,NSW,Edgecliff,-33.8809,151.239
1892,NSW,Surry Hills East,-33.8837,151.217
1893,NSW,Paddington Central,-33.8823,151.22899999999998
1894,NSW,Woollahra South,-33.8863,151.238
1895,NSW,Hyde Park,-33.8761,151.213
1896,NSW,Bellevue Hill South,-33.8859,151.253
1897,NSW,Kings Cross,-33.8774,151.221
1898,NSW,Paddington South,-33.8875,151.23
1899,NSW,Woolloomooloo,-33.872,151.22
1900,NSW,Elizabeth Bay,-33.8719,151.227
1901,NSW,Bondi Junction,-33.8926,151.246
1902,NSW,Redfern East,-33.8947,151.21
1903,NSW,Rose Bay,-33.873000000000005,151.27100000000002
1904,NSW,Rose Bay Central,-33.8709,151.27100000000002
1905,NSW,Kings Cross Central,-33.8753,151.226
1906,NSW,Surry Hills,-33.8871,151.216
1907,NSW,Surry Hills North,-33.8823,151.215
1908,NSW,Vaucluse,-33.8612,151.27100000000002
1909,NSW,Watsons Bay,-33.8459,151.284
1910,NSW,Waverley,-33.8983,151.252
1911,NSW,Woollahra,-33.8865,151.24200000000002
1912,NSW,Ambarvale,-34.0866,150.798
1913,NSW,Blairmount,-34.0484,150.803
1914,NSW,Bradbury,-34.086,150.813
1915,NSW,Bradbury South,-34.0977,150.816
1916,NSW,Minto South,-34.0389,150.847
1917,NSW,Campbelltown East,-34.0723,150.83100000000002
1918,NSW,Campbelltown North,-34.0613,150.82299999999998
1919,NSW,Casula,-33.9437,150.909
1920,NSW,Claymore,-34.043,150.80700000000002
1921,NSW,Macquarie Fields East,-33.9929,150.898
1922,NSW,Eschol Park,-34.0287,150.811
1923,NSW,Glenfield,-33.9705,150.89600000000002
1924,NSW,Glenfield East,-33.9746,150.90200000000002
1925,NSW,Macquarie Fields Central,-33.9869,150.89600000000002
1926,NSW,Hoxton Park,-33.9317,150.849
1927,NSW,Ingleburn,-33.9999,150.86700000000002
1928,NSW,Ingleburn East,-34.0044,150.872
1929,NSW,Ingleburn North,-33.9824,150.843
1930,NSW,Leumeah,-34.0545,150.828
1931,NSW,Leumeah North,-34.0487,150.84
1932,NSW,Lurnea,-33.9324,150.893
1933,NSW,Macquarie Fields,-33.9957,150.885
1934,NSW,Minto,-34.0298,150.847
1935,NSW,Prestons East,-33.9458,150.891
1936,NSW,Raby,-34.0157,150.81799999999998
1937,NSW,Rosemeadow,-34.1048,150.795
1938,NSW,Ruse,-34.067,150.842
1939,NSW,Ingleburn South,-34.010999999999996,150.863
1940,NSW,St Andrews,-34.022,150.832
1941,NSW,Minto North,-34.0228,150.857
1942,NSW,Ambarvale West,-34.0942,150.79
1943,NSW,Wedderburn,-34.13,150.814
1944,NSW,Woodbine,-34.049,150.82
1945,VIC,Bayswater,-37.8433,145.259
1946,VIC,Bayswater West,-37.8489,145.252
1947,VIC,Blackwood Park,-37.8955,145.289
1948,VIC,Boronia,-37.8617,145.275
1949,VIC,Eastmont,-37.8369,145.21
1950,VIC,Fairhills,-37.8699,145.265
1951,VIC,Ferntree Gully West,-37.8762,145.278
1952,VIC,Wantirna West,-37.8645,145.219
1953,VIC,Heathmont,-37.8266,145.247
1954,VIC,Heathmont East,-37.8305,145.257
1955,VIC,Knoxfield,-37.891999999999996,145.247
1956,VIC,Kent Park,-37.883,145.263
1957,VIC,Knox Gardens,-37.8827,145.22899999999998
1958,VIC,Lysterfield,-37.9123,145.276
1959,VIC,Morack,-37.8433,145.2
1960,VIC,Mountain Gate,-37.885999999999996,145.27
1961,VIC,Ringwood South,-37.8252,145.238
1962,VIC,Rowville,-37.9254,145.238
1963,VIC,Rowville East,-37.9194,145.254
1964,VIC,Scoresby,-37.889,145.224
1965,VIC,Watersedge,-37.8833,145.252
1966,VIC,Studfield East,-37.8615,145.256
1967,VIC,Templeton,-37.8609,145.232
1968,VIC,Wantirna,-37.8563,145.216
1969,VIC,Wantirna Central,-37.8574,145.231
1970,VIC,Wantirna South,-37.8719,145.237
1971,VIC,Alfredton,-37.5583,143.814
1972,VIC,Alfredton West,-37.555,143.80100000000002
1973,VIC,Ararat,-37.2822,142.933
1974,VIC,Ararat West,-37.2853,142.923
1975,VIC,Ballarat,-37.5643,143.85399999999998
1976,VIC,Ballarat North,-37.54,143.863
1977,VIC,Ballarat North West,-37.5569,143.839
1978,VIC,Ballarat South,-37.5779,143.83700000000002
1979,VIC,Ballarat South West,-37.5662,143.844
1980,VIC,Beaufort,-37.4301,143.38299999999998
1981,VIC,Black Hill,-37.5495,143.87
1982,VIC,Brown Hill,-37.5559,143.894
1983,VIC,Buangor,-37.3654,143.175
1984,VIC,Bungaree,-37.5585,143.993
1985,VIC,Buninyong,-37.6534,143.886
1986,VIC,Cardigan Village,-37.5148,143.709
1987,VIC,Canadian,-37.5728,143.876
1988,VIC,Cape Clear,-37.7868,143.613
1989,VIC,Snake Valley,-37.6214,143.586
1990,VIC,Clunes,-37.2947,143.786
1991,VIC,Creswick,-37.4238,143.891
1992,VIC,Creswick North,-37.4089,143.891
1993,VIC,Delacombe,-37.585,143.81799999999998
1994,VIC,Dereel,-37.8198,143.75
1995,VIC,Derrinallum,-37.9481,143.217
1996,VIC,Elmhurst,-37.1794,143.25
1997,VIC,Haddon,-37.5882,143.722
1998,VIC,Lake Bolac,-37.7202,142.839
1999,VIC,Learmonth,-37.4217,143.713
2000,VIC,Linton,-37.6839,143.561
2001,VIC,Lismore,-37.9548,143.339
2002,VIC,Magpie,-37.6161,143.844
2003,VIC,Miners Rest,-37.4774,143.795
2004,VIC,Mount Clear,-37.6109,143.87
2005,VIC,Mount Pleasant,-37.5776,143.858
2006,VIC,Moyston,-37.3024,142.766
2007,VIC,Napoleons,-37.6801,143.827
2008,VIC,Newington,-37.5666,143.83100000000002
2009,VIC,Newlyn,-37.4113,143.984
2010,VIC,Pomonal,-37.1935,142.608
2011,VIC,Redan,-37.5875,143.833
2012,VIC,Rokewood,-37.9036,143.72299999999998
2013,VIC,Ross Creek,-37.6335,143.757
2014,VIC,Sebastopol,-37.5973,143.84
2015,VIC,Skipton,-37.6877,143.364
2016,VIC,Smythesdale,-37.6431,143.683
2017,VIC,Soldiers Hill,-37.5506,143.861
2018,VIC,Streatham,-37.679,143.062
2019,VIC,Tatyoon,-37.5168,142.942
2020,VIC,The Stockade,-37.5617,143.874
2021,VIC,Wendouree,-37.5387,143.83100000000002
2022,VIC,Wendouree East,-37.5376,143.83700000000002
2023,VIC,Wendouree North,-37.5229,143.835
2024,VIC,Wendouree West,-37.5278,143.82
2025,VIC,Willaura,-37.5441,142.739
2026,VIC,Alphington,-37.7836,145.032
2027,VIC,Alphington North,-37.7724,145.024
2028,VIC,Boldrewood,-37.7207,145.02200000000002
2029,VIC,Burbank,-37.6996,145.03
2030,VIC,Fairfield,-37.7783,145.02100000000002
2031,VIC,Fairfield North,-37.7766,145.018
2032,VIC,Merrilands,-37.6964,145.003
2033,VIC,Northcote,-37.7751,144.997
2034,VIC,Northcote North,-37.7637,145.0
2035,VIC,Northcote South,-37.7773,145.007
2036,VIC,Northcote West,-37.7742,144.989
2037,VIC,Preston,-37.7448,145.004
2038,VIC,Preston East,-37.7378,145.018
2039,VIC,Preston North East,-37.7329,145.03
2040,VIC,Preston South,-37.7476,145.007
2041,VIC,Regent,-37.7306,145.01
2042,VIC,Reservoir,-37.7115,145.007
2043,VIC,Reservoir Central,-37.7182,145.005
2044,VIC,Reservoir East,-37.7294,145.018
2045,VIC,Reservoir North,-37.7059,145.02100000000002
2046,VIC,Reservoir North East,-37.7157,145.019
2047,VIC,Reservoir South,-37.7265,144.994
2048,VIC,Ruthven,-37.7036,144.995
2049,VIC,Thornbury East,-37.7546,145.015
2050,VIC,Thornbury South,-37.762,145.009
2051,VIC,Westgarth,-37.7828,144.996
2052,VIC,Amphitheatre,-37.1835,143.399
2053,VIC,Avoca,-37.085,143.47299999999998
2054,VIC,Bealiba,-36.7897,143.55200000000002
2055,VIC,Bendigo Central,-36.7607,144.285
2056,VIC,Flora Hill,-36.7773,144.291
2057,VIC,Big Hill,-36.8307,144.24200000000002
2058,VIC,Bowenvale,-36.9854,143.709
2059,VIC,Bridgewater,-36.6029,143.945
2060,VIC,California Gully,-36.7334,144.251
2061,VIC,Central Deborah,-36.7647,144.27200000000002
2062,VIC,Charlton,-36.2671,143.34799999999998
2063,VIC,Comet Hill,-36.7361,144.269
2064,VIC,Concongella,-37.0494,142.822
2065,VIC,Donald,-36.3689,142.982
2066,VIC,Dunolly,-36.8582,143.732
2067,VIC,Eaglehawk,-36.7167,144.25
2068,VIC,Epsom,-36.7055,144.313
2069,VIC,Glenorchy,-36.908,142.662
2070,VIC,Golden Square,-36.7706,144.25799999999998
2071,VIC,Goornong,-36.6167,144.50799999999998
2072,VIC,Great Western,-37.1485,142.851
2073,VIC,Halls Gap,-37.1373,142.518
2074,VIC,Huntly,-36.662,144.335
2075,VIC,Inglewood,-36.5739,143.87
2076,VIC,Jobs Gully,-36.7183,144.262
2077,VIC,Kangaroo Flat,-36.7909,144.236
2078,VIC,Strath Hill,-36.7804,144.303
2079,VIC,Korong Vale,-36.3559,143.70600000000002
2080,VIC,Landsborough,-37.0091,143.134
2081,VIC,Lexton,-37.275,143.514
2082,VIC,Lockwood,-36.8048,144.161
2083,VIC,Long Gully,-36.7451,144.253
2084,VIC,Maiden Gully,-36.7443,144.211
2085,VIC,Marnoo,-36.6772,142.87
2086,VIC,Marong,-36.7341,144.13299999999998
2087,VIC,Maryborough,-37.0456,143.736
2088,VIC,Maryborough East,-37.0533,143.736
2089,VIC,Moonambel,-36.99,143.321
2090,VIC,Newbridge,-36.7404,143.9
2091,VIC,Quarry Hill,-36.7753,144.28
2092,VIC,Raywood,-36.5358,144.207
2093,VIC,Eaglehawk North,-36.7071,144.238
2094,VIC,St Arnaud,-36.615,143.257
2095,VIC,Bendigo East,-36.7526,144.303
2096,VIC,Spring Gully,-36.7997,144.286
2097,VIC,Stawell,-37.0584,142.77700000000002
2098,VIC,Stawell West,-37.0661,142.77100000000002
2099,VIC,Strathdale,-36.7663,144.314
2100,VIC,Talbot,-37.167,143.704
2101,VIC,Tarnagulla,-36.771,143.833
2102,VIC,Watchem,-36.149,142.859
2103,VIC,Waubra,-37.3538,143.634
2104,VIC,Wedderburn,-36.4199,143.614
2105,VIC,Weeroona,-36.7383,144.299
2106,VIC,White Hills,-36.7274,144.304
2107,VIC,Woodvale,-36.6558,144.211
2108,VIC,Brandon Park,-37.9131,145.173
2109,VIC,Brentwood,-37.8972,145.168
2110,VIC,Clareville,-37.9338,145.164
2111,VIC,Clayton,-37.9181,145.124
2112,VIC,Clayton North,-37.9121,145.125
2113,VIC,Gladeswood,-37.9326,145.197
2114,VIC,The Glen,-37.8779,145.162
2115,VIC,Glen Waverley Heights,-37.8754,145.16899999999998
2116,VIC,Jells Park,-37.9027,145.19299999999998
2117,VIC,Mount View,-37.8841,145.178
2118,VIC,Mulgrave,-37.9226,145.166
2119,VIC,Albany Rise,-37.9285,145.173
2120,VIC,Oakleigh East,-37.9002,145.11
2121,VIC,Pinewood,-37.89,145.143
2122,VIC,Sussex Heights,-37.8885,145.11
2123,VIC,Syndal South,-37.879,145.144
2124,VIC,Waverley Meadows,-37.9145,145.184
2125,VIC,Wheelers Hill,-37.9006,145.178
2126,VIC,Wheelers Hill South,-37.9176,145.19
2127,VIC,Anakie,-37.9126,144.255
2128,VIC,Axedale,-36.7858,144.5
2129,VIC,Bacchus Marsh,-37.6722,144.435
2130,VIC,Ballan,-37.6012,144.224
2131,VIC,Bethal,-37.66,144.918
2132,VIC,Blackwood,-37.4708,144.308
2133,VIC,Bolinda,-37.4332,144.745
2134,VIC,Bullengarook,-37.4863,144.517
2135,VIC,Campbells Creek,-37.0914,144.204
2136,VIC,Carisbrook,-37.0458,143.814
2137,VIC,Castlemaine,-37.0644,144.218
2138,VIC,Castlemaine North,-37.0591,144.219
2139,VIC,Chewton,-37.0805,144.263
2140,VIC,Coolaroo,-37.662,144.93
2141,VIC,Craigieburn,-37.5993,144.934
2142,VIC,Darley,-37.6541,144.437
2143,VIC,Daylesford,-37.3368,144.154
2144,VIC,Drummond,-37.2356,144.33100000000002
2145,VIC,Elaine,-37.7772,144.031
2146,VIC,Elphinstone,-37.0966,144.352
2147,VIC,Eppalock,-36.8402,144.388
2148,VIC,Gisborne,-37.4906,144.588
2149,VIC,Glenlyon,-37.2955,144.245
2150,VIC,Gordon,-37.5803,144.10399999999998
2151,VIC,Greenvale,-37.6274,144.888
2152,VIC,Guildford,-37.1495,144.167
2153,VIC,Harcourt,-37.0025,144.257
2154,VIC,Heathcote,-36.9232,144.709
2155,VIC,Hepburn Springs,-37.3098,144.13299999999998
2156,VIC,Kyneton,-37.2479,144.459
2157,VIC,Lancefield,-37.2748,144.727
2158,VIC,Macedon,-37.4189,144.563
2159,VIC,Maldon,-36.9896,144.064
2160,VIC,Malmsbury,-37.1874,144.389
2161,VIC,Mandurang,-36.8263,144.304
2162,VIC,Meadows,-37.6926,144.929
2163,VIC,Meredith,-37.8457,144.071
2164,VIC,Mount Egerton,-37.6281,144.105
2165,VIC,Mount Macedon,-37.4051,144.583
2166,VIC,Myrniong,-37.6196,144.345
2167,VIC,New Gisborne,-37.4624,144.596
2168,VIC,Newham,-37.3135,144.594
2169,VIC,Newstead,-37.1077,144.059
2170,VIC,Pyalong,-37.1174,144.857
2171,VIC,Redesdale,-37.0195,144.53
2172,VIC,Riddell,-37.4609,144.679
2173,VIC,Romsey,-37.3539,144.744
2174,VIC,Strathfieldsaye,-36.803000000000004,144.351
2175,VIC,Sunbury,-37.5741,144.73
2176,VIC,Sunbury North,-37.5657,144.72799999999998
2177,VIC,Sunbury West,-37.5752,144.713
2178,VIC,Taradale,-37.1409,144.351
2179,VIC,Tooborac,-37.043,144.799
2180,VIC,Toolern Vale,-37.6052,144.594
2181,VIC,Trentham,-37.3884,144.328
2182,VIC,Tylden,-37.3248,144.409
2183,VIC,Warrenheip,-37.5741,143.92700000000002
2184,VIC,Winters Flat,-37.0704,144.207
2185,VIC,Woodend,-37.3536,144.52100000000002
2186,VIC,Yandoit,-37.2138,144.088
2187,VIC,Albanvale,-37.7379,144.776
2188,VIC,Albion,-37.7782,144.82
2189,VIC,Sunshine North West,-37.7627,144.82299999999998
2190,VIC,Avondale Heights,-37.7661,144.861
2191,VIC,Sunvale,-37.7831,144.845
2192,VIC,Diggers Rest,-37.6236,144.708
2193,VIC,Glengala South,-37.7988,144.814
2194,VIC,Kealba,-37.7341,144.819
2195,VIC,Keilor,-37.7166,144.835
2196,VIC,Keilor Downs,-37.7177,144.809
2197,VIC,Keilor East,-37.7441,144.859
2198,VIC,Kings Park,-37.7329,144.77200000000002
2199,VIC,St Albans East,-37.742,144.811
2200,VIC,St Albans North,-37.7319,144.80100000000002
2201,VIC,St Albans South,-37.755,144.804
2202,VIC,St Albans South East,-37.7558,144.815
2203,VIC,St Albans West,-37.7411,144.786
2204,VIC,Sunshine North,-37.7716,144.838
2206,VIC,Bimbadeen Heights,-37.7746,145.322
2207,VIC,Chirnside Park,-37.7505,145.313
2208,VIC,Coldstream,-37.733000000000004,145.38299999999998
2209,VIC,Croydon Central,-37.789,145.282
2210,VIC,Croydon Hills,-37.7763,145.27200000000002
2211,VIC,Croydon North,-37.7689,145.296
2212,VIC,Croydon West,-37.7942,145.264
2213,VIC,Diamond Creek,-37.6718,145.158
2214,VIC,Diamond Creek East,-37.6737,145.167
2215,VIC,Dixons Creek,-37.5927,145.41299999999998
2216,VIC,Donvale,-37.7911,145.19899999999998
2217,VIC,Gruyere,-37.734,145.451
2218,VIC,Hurstbridge,-37.6364,145.197
2219,VIC,Kalinda,-37.7899,145.255
2220,VIC,Kangaroo Ground,-37.6914,145.215
2221,VIC,Lilydale,-37.7533,145.35399999999998
2222,VIC,Lilydale West,-37.7556,145.336
2223,VIC,Manchester,-37.7719,145.31
2224,VIC,Norwood,-37.8002,145.238
2225,VIC,Panton Hill,-37.6416,145.239
2226,VIC,Park Orchards,-37.7794,145.215
2227,VIC,Ringwood,-37.8118,145.231
2228,VIC,Ringwood East,-37.8087,145.245
2229,VIC,Ringwood Heights,-37.8046,145.217
2230,VIC,Ringwood North,-37.793,145.23
2231,VIC,Rolling Hills,-37.7668,145.329
2232,VIC,St Andrews,-37.5997,145.275
2233,VIC,Tunstall,-37.8009,145.174
2234,VIC,Warrandyte,-37.7427,145.214
2235,VIC,Warrandyte North,-37.7294,145.215
2236,VIC,Wonga Park,-37.7304,145.274
2237,VIC,Yarra Glen,-37.6496,145.372
2238,VIC,Yarrambat,-37.6402,145.13299999999998
2239,VIC,Ashburton,-37.8623,145.084
2240,VIC,Ashwood,-37.8655,145.10399999999998
2241,VIC,Blackburn South,-37.8357,145.14700000000002
2242,VIC,Box Hill,-37.8191,145.127
2243,VIC,Box Hill Central,-37.8216,145.122
2244,VIC,Box Hill South,-37.8352,145.125
2245,VIC,Burwood,-37.8542,145.089
2246,VIC,Burwood Central,-37.8493,145.097
2247,VIC,Chatham,-37.8281,145.09
2248,VIC,Elgar Park,-37.8301,145.111
2249,VIC,Essex Heights,-37.8631,145.115
2250,VIC,Hartwell,-37.8478,145.084
2251,VIC,Highfield Park,-37.8389,145.084
2252,VIC,Kerrimuir,-37.8036,145.135
2253,VIC,Koonung Heights,-37.8026,145.11700000000002
2254,VIC,Mont Albert,-37.8075,145.112
2255,VIC,Mount Waverley South,-37.8816,145.123
2256,VIC,Surrey Hills,-37.826,145.101
2257,VIC,Tyne,-37.8113,145.129
2258,VIC,Wattle Park,-37.8387,145.12
2259,VIC,Waverley North,-37.8692,145.13299999999998
2260,VIC,Aireys Inlet,-38.4561,144.108
2261,VIC,Anglesea,-38.4096,144.184
2262,VIC,Apollo Bay,-38.7535,143.661
2263,VIC,Bannockburn,-38.0475,144.171
2264,VIC,Barwon Heads,-38.2817,144.487
2265,VIC,Beeac,-38.1939,143.642
2266,VIC,Highton South,-38.186,144.325
2267,VIC,Bellbrae,-38.3369,144.262
2268,VIC,Belmont North,-38.1708,144.342
2269,VIC,Birregurra,-38.3362,143.786
2270,VIC,Ceres,-38.17,144.276
2271,VIC,Clifton Springs,-38.166,144.553
2272,VIC,Colac East,-38.3373,143.59799999999998
2273,VIC,Colac West,-38.3432,143.572
2274,VIC,Connewarre,-38.2649,144.39700000000002
2275,VIC,Cororooke,-38.2518,143.524
2276,VIC,Cressy,-38.0253,143.645
2277,VIC,Deans Marsh,-38.4022,143.88
2278,VIC,Drysdale,-38.1693,144.575
2279,VIC,Elliminyt,-38.3612,143.584
2280,VIC,Forrest,-38.5168,143.714
2281,VIC,Freshwater Creek,-38.2579,144.281
2282,VIC,Gellibrand River,-38.5195,143.53799999999998
2283,VIC,Grovedale,-38.2108,144.328
2284,VIC,Highton North,-38.1618,144.303
2285,VIC,Inverleigh,-38.1009,144.055
2286,VIC,Irrewillipe,-38.4113,143.44299999999998
2287,VIC,Lavers Hill,-38.6829,143.387
2288,VIC,Leopold,-38.1879,144.463
2289,VIC,Lethbridge,-37.9661,144.134
2290,VIC,Lorne,-38.537,143.97299999999998
2291,VIC,Moriac,-38.2464,144.174
2292,VIC,Mount Duneed,-38.241,144.32
2293,VIC,Oberon,-38.179,144.342
2294,VIC,Ocean Grove West,-38.2642,144.523
2295,VIC,Point Lonsdale,-38.2735,144.621
2296,VIC,Portarlington,-38.1155,144.657
2297,VIC,Queenscliff,-38.2678,144.659
2298,VIC,St Leonards,-38.1728,144.715
2299,VIC,Teesdale,-38.0318,144.066
2300,VIC,Torquay,-38.3054,144.33
2301,VIC,Wallington,-38.2185,144.507
2302,VIC,Warrion,-38.2228,143.571
2303,VIC,Winchelsea,-38.2412,143.993
2304,VIC,Winchelsea South,-38.3165,144.01
2305,VIC,Geelong South,-38.1567,144.359
2306,VIC,Bell Park,-38.1058,144.336
2307,VIC,Britannia,-38.1351,144.346
2308,VIC,Chilwell,-38.1554,144.345
2309,VIC,Corio Central,-38.0726,144.344
2310,VIC,Corio West,-38.0792,144.356
2311,VIC,Geelong,-38.1529,144.374
2312,VIC,Geelong West,-38.14,144.347
2313,VIC,Hamlyn Heights,-38.1249,144.328
2314,VIC,Herne Hill,-38.1298,144.332
2315,VIC,Lara,-38.0221,144.41
2316,VIC,Lara Central,-38.0212,144.398
2317,VIC,Manifold Heights,-38.135999999999996,144.333
2318,VIC,Newcomb,-38.1651,144.395
2319,VIC,Newcomb South,-38.1707,144.394
2320,VIC,Norlane,-38.0815,144.338
2321,VIC,North Shore,-38.0903,144.364
2322,VIC,Rollins,-38.1013,144.326
2323,VIC,Newtown,-38.1456,144.33700000000002
2324,VIC,Thomson,-38.1741,144.384
2325,VIC,Antonio Park,-37.8161,145.20600000000002
2326,VIC,Blackburn,-37.8209,145.15200000000002
2327,VIC,Blackburn North,-37.8173,145.157
2328,VIC,Blackburn West,-37.8106,145.15
2329,VIC,Burwood Heights,-37.8474,145.16299999999998
2330,VIC,Camelot,-37.8657,145.188
2331,VIC,Charlesworth Park,-37.8524,145.18200000000002
2332,VIC,Forest Hill,-37.8392,145.159
2333,VIC,Blackburn Lake,-37.8272,145.166
2334,VIC,Glendal,-37.8661,145.157
2335,VIC,Heatherdale,-37.8209,145.208
2336,VIC,Highvale,-37.8664,145.17600000000002
2337,VIC,Laburnum,-37.8268,145.137
2338,VIC,Mitcham,-37.8155,145.197
2339,VIC,Manooka,-37.8571,145.142
2340,VIC,Mitcham North,-37.8071,145.19
2341,VIC,Nunawading South,-37.8289,145.18
2342,VIC,Parkmore,-37.8438,145.17700000000002
2343,VIC,Springview,-37.8079,145.167
2344,VIC,Syndal North,-37.8677,145.141
2345,VIC,Tally Ho,-37.8596,145.151
2346,VIC,Rangeview,-37.8285,145.205
2347,VIC,Vermont North,-37.8357,145.196
2348,VIC,Weeden Heights,-37.859,145.178
2349,VIC,Aldercourt,-38.1175,145.162
2350,VIC,Baden Powell,-38.1727,145.108
2351,VIC,Ballam Park,-38.1459,145.159
2352,VIC,Mt Erin,-38.1743,145.148
2353,VIC,Bruce Park,-38.1607,145.139
2354,VIC,Derinya,-38.1746,145.121
2355,VIC,Frankston,-38.1475,145.124
2356,VIC,Frankston East,-38.1367,145.139
2357,VIC,Frankston Heights,-38.1618,145.14700000000002
2358,VIC,Frankston Rail,-38.1439,145.127
2359,VIC,Frankston South,-38.161,145.129
2360,VIC,Kananook,-38.1249,145.13299999999998
2361,VIC,Karingal,-38.1459,145.145
2362,VIC,Karingal Heights,-38.1415,145.166
2363,VIC,Kunyung,-38.1874,145.076
2364,VIC,Mornington,-38.2217,145.03799999999998
2365,VIC,Mornington South,-38.2319,145.04
2366,VIC,Mt Eliza,-38.1898,145.093
2367,VIC,Mt Eliza North,-38.1884,145.101
2368,VIC,Tanti Park,-38.2258,145.058
2369,VIC,Balnarring,-38.3757,145.123
2370,VIC,Bass,-38.4843,145.465
2371,VIC,Baxter,-38.1997,145.181
2372,VIC,Bayles,-38.1766,145.566
2373,VIC,Bittern,-38.3391,145.171
2374,VIC,Blairgowrie,-38.3638,144.784
2375,VIC,Boneo,-38.4123,144.887
2376,VIC,Corinella,-38.414,145.431
2377,VIC,Cowes,-38.4513,145.246
2378,VIC,Cranbourne South,-38.1485,145.245
2379,VIC,Crib Point,-38.3611,145.201
2380,VIC,Dalyston,-38.5643,145.542
2381,VIC,Devon Meadows,-38.1624,145.30200000000002
2382,VIC,Dromana,-38.3409,144.96
2383,VIC,Flinders,-38.4735,145.016
2384,VIC,Grantville,-38.4061,145.532
2385,VIC,Hastings,-38.3079,145.194
2386,VIC,Kilcunda,-38.5487,145.475
2387,VIC,Kooweerup,-38.2004,145.488
2388,VIC,Lang Lang,-38.2632,145.57
2389,VIC,Langwarrin,-38.1591,145.19
2390,VIC,Loch,-38.369,145.705
2391,VIC,Merricks North,-38.3538,145.075
2392,VIC,Moorooduc,-38.2483,145.106
2393,VIC,Mt Martha,-38.2754,145.013
2394,VIC,Newhaven,-38.5133,145.358
2395,VIC,Nyora,-38.3366,145.675
2396,VIC,Pearcedale,-38.2032,145.231
2397,VIC,Poowong,-38.3424,145.768
2398,VIC,Portsea,-38.3186,144.704
2399,VIC,Red Hill,-38.367,144.996
2400,VIC,Rhyll,-38.463,145.306
2401,VIC,Rosebud East,-38.3563,144.9
2402,VIC,Rosebud West,-38.3677,144.89
2403,VIC,Rye,-38.3716,144.822
2404,VIC,San Remo,-38.5241,145.37
2405,VIC,Shoreham,-38.4275,145.045
2406,VIC,Somers,-38.3922,145.165
2407,VIC,Somerville West,-38.2297,145.16899999999998
2408,VIC,Sorrento,-38.3389,144.736
2409,VIC,Tooradin,-38.2076,145.38
2410,VIC,Tootgarook,-38.3697,144.857
2411,VIC,Tyabb,-38.260999999999996,145.19
2412,VIC,Wonthaggi,-38.6049,145.58700000000002
2413,VIC,Wonthaggi North,-38.5982,145.59799999999998
2414,VIC,Altona East,-37.8489,144.868
2415,VIC,Altona Gate,-37.8326,144.84799999999998
2416,VIC,Altona North,-37.8363,144.846
2417,VIC,Footscray,-37.798,144.895
2418,VIC,Footscray Central,-37.8048,144.892
2419,VIC,Footscray South,-37.8063,144.9
2420,VIC,Footscray West,-37.7948,144.876
2421,VIC,Kingsville,-37.8126,144.874
2422,VIC,Yarraville South,-37.8208,144.874
2423,VIC,Maidstone,-37.7869,144.885
2424,VIC,Maribyrnong,-37.7676,144.888
2425,VIC,Newport,-37.8384,144.878
2426,VIC,Newport East,-37.8412,144.888
2427,VIC,Newport West,-37.8435,144.863
2428,VIC,Seddon,-37.8094,144.89
2429,VIC,Spotswood,-37.8303,144.882
2430,VIC,South Kingsville,-37.8292,144.87
2431,VIC,Sunshine,-37.791,144.83100000000002
2432,VIC,Tottenham North,-37.7918,144.857
2433,VIC,Williamstown,-37.8626,144.895
2434,VIC,Williamstown North,-37.856,144.892
2435,VIC,Williamstown South,-37.8644,144.901
2436,VIC,Williamstown West,-37.8578,144.886
2437,VIC,Yarraville,-37.8174,144.887
2438,VIC,Yarraville Central,-37.8146,144.885
2439,VIC,Alberton,-38.6175,146.667
2440,VIC,Arawata,-38.3944,145.87
2441,VIC,Bairnsdale,-37.8272,147.624
2442,VIC,Bairnsdale West,-37.8247,147.606
2443,VIC,Bena,-38.4115,145.759
2444,VIC,Boisdale,-37.8837,146.989
2445,VIC,Boolarra,-38.3787,146.275
2446,VIC,Briagolong,-37.8433,147.06799999999998
2447,VIC,Bruthen,-37.7074,147.832
2448,VIC,Buchan,-37.4965,148.17700000000002
2449,VIC,Cann River,-37.5698,149.153
2450,VIC,Ellaswood,-37.8082,147.621
2451,VIC,Cobains,-38.076,147.131
2452,VIC,Cowwarr,-38.0116,146.7
2453,VIC,Devon North,-38.5198,146.658
2454,VIC,Drouin South,-38.1708,145.826
2455,VIC,Dumbalk,-38.5323,146.094
2456,VIC,Eagle Point,-37.8922,147.68
2457,VIC,Ellinbank,-38.24,145.938
2458,VIC,Fish Creek,-38.6928,146.082
2459,VIC,Foster,-38.6526,146.197
2460,VIC,Glengarry,-38.1276,146.571
2461,VIC,Glenmaggie,-37.8949,146.751
2462,VIC,Golden Beach,-38.2109,147.398
2463,VIC,Gormandale,-38.2947,146.702
2464,VIC,Heyfield,-37.9849,146.785
2465,VIC,Inverloch,-38.6335,145.72799999999998
2466,VIC,Kongwak,-38.5148,145.713
2467,VIC,Koonwarra,-38.5471,145.947
2468,VIC,Korumburra,-38.4355,145.822
2469,VIC,Lakes Entrance,-37.8786,147.987
2470,VIC,Leongatha,-38.4773,145.942
2471,VIC,Leongatha South,-38.5296,145.88
2472,VIC,Lindenow,-37.8001,147.459
2473,VIC,Loch Sport,-38.0341,147.601
2474,VIC,Longford,-38.1712,147.088
2475,VIC,Maffra,-37.9676,146.97899999999998
2476,VIC,Mallacoota,-37.5592,149.75
2477,VIC,Marlo,-37.7968,148.534
2478,VIC,Meeniyan,-38.5796,146.016
2479,VIC,Metung,-37.8896,147.852
2480,VIC,Mirboo North,-38.400999999999996,146.155
2481,VIC,Mount Eccles,-38.3638,145.977
2482,VIC,Nambrok-Denison,-38.0537,146.874
2483,VIC,Narracan,-38.2576,146.227
2484,VIC,Nerrena,-38.5085,145.995
2485,VIC,Newmerella,-37.7365,148.433
2486,VIC,Nicholson,-37.8156,147.744
2487,VIC,Nowa Nowa,-37.731,148.093
2488,VIC,Nungurner,-37.8658,147.889
2489,VIC,Omeo,-37.1008,147.591
2490,VIC,Orbost,-37.7081,148.45600000000002
2491,VIC,Paynesville,-37.9119,147.715
2492,VIC,Port Albert,-38.6725,146.692
2493,VIC,Port Franklin,-38.6836,146.278
2494,VIC,Rosedale,-38.1516,146.787
2495,VIC,Sale,-38.1094,147.067
2496,VIC,Sale East,-38.1073,147.089
2497,VIC,Sale North,-38.0967,147.082
2498,VIC,Seaspray,-38.3747,147.19
2499,VIC,Stratford,-37.9681,147.085
2500,VIC,Swifts Creek,-37.2641,147.721
2501,VIC,Tarwin Lower,-38.6993,145.868
2502,VIC,Thorpdale,-38.2878,146.17700000000002
2503,VIC,Toongabbie,-38.0568,146.625
2504,VIC,Toora,-38.6641,146.325
2505,VIC,Toorloo Arm,-37.8524,148.05100000000002
2506,VIC,Welshpool,-38.6646,146.44
2507,VIC,Won Wron,-38.4729,146.718
2508,VIC,Woodside,-38.5282,146.876
2509,VIC,Eastwood,-37.8123,147.63
2510,VIC,Yanakie,-38.8308,146.239
2511,VIC,Yarram,-38.5551,146.678
2512,VIC,Yinnar,-38.3203,146.33
2513,VIC,Bentleigh,-37.9253,145.04
2514,VIC,Bentleigh West,-37.9205,145.026
2515,VIC,Brighton,-37.9123,145.001
2516,VIC,Brighton Beach,-37.922,144.995
2517,VIC,Brighton High,-37.9201,145.02
2518,VIC,Elsternwick Central,-37.8945,145.014
2519,VIC,Caulfield South,-37.8925,145.02200000000002
2520,VIC,Dendy,-37.9218,145.015
2521,VIC,Elsternwick,-37.8852,145.012
2522,VIC,Elsternwick North,-37.8876,145.02
2523,VIC,Elsternwick South,-37.8913,144.998
2524,VIC,Gardenvale,-37.8986,144.999
2525,VIC,Hampton,-37.9335,145.003
2526,VIC,Hampton Central,-37.9396,145.005
2527,VIC,Highett,-37.9476,145.03799999999998
2528,VIC,Highett West,-37.9509,145.02100000000002
2529,VIC,Landcox,-37.9026,145.015
2530,VIC,Ludstone,-37.9338,145.013
2531,VIC,Middle Brighton,-37.9124,144.993
2532,VIC,Hampton East,-37.9394,145.032
2533,VIC,Ripponlea East,-37.8747,145.005
2534,VIC,Ripponlea North,-37.8654,144.994
2535,VIC,Sandringham,-37.9485,145.003
2536,VIC,Sandringham North,-37.9472,145.01
2537,VIC,Bentleigh Central,-37.9207,145.05200000000002
2538,VIC,Carnegie,-37.8907,145.054
2539,VIC,Carnegie East,-37.8899,145.062
2540,VIC,Carnegie North,-37.8801,145.067
2541,VIC,Chadstone,-37.8806,145.08100000000002
2542,VIC,Coatesville,-37.9212,145.07399999999998
2543,VIC,Glenhuntly,-37.8954,145.031
2544,VIC,Glenhuntly East,-37.8934,145.046
2545,VIC,Hughesdale,-37.8985,145.076
2546,VIC,Hughesdale South,-37.9087,145.077
2547,VIC,McKinnon,-37.9109,145.036
2548,VIC,Malvern East,-37.8721,145.055
2549,VIC,Murrumbeena,-37.8852,145.07
2550,VIC,Murrumbeena South,-37.9021,145.065
2551,VIC,Oakleigh,-37.8948,145.088
2552,VIC,Oakleigh Central,-37.9065,145.09
2553,VIC,Oakleigh South,-37.9203,145.089
2554,VIC,McKinnon East,-37.9121,145.048
2555,VIC,Ormond West,-37.9069,145.035
2556,VIC,Armadale,-37.8523,145.018
2557,VIC,Auburn South,-37.8397,145.046
2558,VIC,Burwood West,-37.8514,145.077
2559,VIC,Camberwell,-37.8328,145.058
2560,VIC,Camberwell Middle,-37.8326,145.066
2561,VIC,Camberwell South,-37.8483,145.062
2562,VIC,Caulfield,-37.8853,145.03
2563,VIC,Caulfield East,-37.8852,145.03799999999998
2564,VIC,Caulfield North,-37.8718,145.019
2565,VIC,Caulfield Upper,-37.8738,145.025
2566,VIC,Darling,-37.8617,145.05100000000002
2567,VIC,Gardiner,-37.8544,145.05100000000002
2568,VIC,Glen Iris,-37.8605,145.065
2569,VIC,Glen Iris South,-37.873000000000005,145.07299999999998
2570,VIC,Malvern,-37.8556,145.035
2571,VIC,Malvern Central,-37.8626,145.031
2572,VIC,Malvern Lower,-37.8532,145.025
2573,VIC,Malvern South,-37.8708,145.039
2574,VIC,Malvern West,-37.8571,145.023
2575,VIC,Orrong,-37.8524,145.01
2576,VIC,Toorak,-37.8415,145.019
2577,VIC,Toorak Central,-37.845,145.01
2578,VIC,Toorak West,-37.8392,145.009
2579,VIC,Carrum Downs,-38.0951,145.187
2580,VIC,Chandler,-37.9922,145.18
2581,VIC,Cleeland,-37.9785,145.213
2582,VIC,Clyde,-38.1325,145.327
2583,VIC,Cranbourne,-38.1083,145.287
2584,VIC,Cranbourne Park,-38.1044,145.27700000000002
2585,VIC,Dandenong,-37.9904,145.221
2586,VIC,Dandenong South,-37.9989,145.21200000000002
